id,nom_estab,raz_social,codigo_act,nombre_act,per_ocu,tipo_vial,nom_vial,tipo_v_e_1,nom_v_e_1,tipo_v_e_2,nom_v_e_2,tipo_v_e_3,nom_v_e_3,numero_ext,letra_ext,edificio,edificio_e,numero_int,letra_int,tipo_asent,nomb_asent,tipoCenCom,nom_CenCom,num_local,cod_postal,cve_ent,entidad,cve_mun,municipio,cve_loc,localidad,ageb,manzana,telefono,correoelec,www,tipoUniEco,latitud,longitud,fecha_alta
"8760563",TORTILLERIA MORALES,,"311830",ElaboraciIn de tortillas de maiz y molienda de nixtamal,0 a 5 personas,CALLE,MODESTO ARREOLA,CALLE,FERNANDO DAVILA REYES,ANDADOR,NINGUNO,AVENIDA,IGNACIO MORONES PRIETO,"242",,,,,,COLONIA,LOS PINOS,,,,"66239","19",NUEVO LESN,"019",San Pedro Garza GarcTa,"0001",San Pedro Garza GarcTa,"0488","039",,JULIO_NESH@HOTMAIL.COM,,Fijo,25.67119584,-100.3943012,2019-11
"3019204",TORTILLERIA RODRIGUEZ,,"311830",ElaboraciIn de tortillas de maMz y molienda de nixtamal,0 a 5 personas,CALLE,COBALTO,CALLE,ZINC,CALLE,CARBONO,CALLE,PLOMO,"236",,,,"0",,COLONIA,SAN PEDRO 400,,,,"66210","19",NUEVO LEON,"019",San Pedro Garza Garcla,"0001",San Pedro Garza Garcla,"0011","015",,,,Fijo,25.68304894,-100.41365313,2010-07
"7648378",CARPINTERIA ALUMINIO Y VIDRIO ATLANTA,,"321910",FabricaciIn de productos de madera para la construcciDn,0 a 5 personas,CALLE,PLATA,AVENIDA,MANUEL J. CLOUTHIER,CALLE,PLOMO,CALLE,URANIO,"104",,,,,,COLONIA,SAN PEDRO 400,,,,"66210","19",NUEVO LEON,"019",San Pedro Garza Garcca,"0001",San Pedro Garza Garcca,"0026","002",,,,Fijo,25.68070707,-100.41441832,2019-11
"7563996",COSTURA SIN NOMBRE,,"315223",ConfecciSn en serie de uniformes,0 a 5 personas,CALLE,ZINC,CALLE,GRAFITO,CALLE,AZUFRE,CALLE,CARBONO,"410",,,,"0",,COLONIA,SAN PEDRO 400,,,,"66210","19",NUEVO LEON,"019",San Pedro Garza Garcda,"0001",San Pedro Garza Garcda,"0011","005",,,,Fijo,25.68523889,-100.41361335,2019-11
"3019306",TORTILLERIA LA MONTANA,,"311830",ElaboraciIn de tortillas de madz y molienda de nixtamal,6 a 10 personas,CALLE,GENERAL ALVARO OBREGON,CALLE,ANTONIO I. VILLARREAL,CALLE,NICEFORO ZAMBRANO,AVENIDA,GENERAL EMILIANO ZAPATA,,SN,,,,,COLONIA,REVOLUCION,,,,"66219","19",NUEVO LEON,"019",San Pedro Garza GarcAa,"0001",San Pedro Garza GarcAa,"0327","021","8183158858",,,Fijo,25.68168223,-100.40759131,2010-07
"2992690",TORTILLERIA LA LOLA,TORTILLA DE MAIZ,"311830",ElaboraciDn de tortillas de madz y molienda de nixtamal,0 a 5 personas,CALLE,CROMO,CALLE,COBALTO,CALLE,PLOMO,CALLE,FIERRO,,SN,,,,,COLONIA,SAN PEDR0 400,,,,"66210","19",NUEVO LE0N,"019",San Pedro Garza Garcla,"0001",San Pedro Garza Garcla,"0026","029",,,,Fijo,25.68257758,-100.4175002,2014-12
"3019132",TORTILLERIA LA LUZ,,"311830",ElaboraciIn de tortillas de madz y molienda de nixtamal,11 a 30 personas,CALLE,ANTONIO DIAZ SOTO,AVENIDA,DIVISION DEL NORTE,CALLE,RICARDO FLORES MAGON,AVENIDA,MANUEL J. CLOUTHIER,,SN,,,,,COLONIA,REVOLUCION PRIMER SECTOR,,,,"66219","19",NUEVO LEON,"019",San Pedro Garza GarcCa,"0001",San Pedro Garza GarcCa,"0327","031","8183156610",LALUZ_TORTILLERIA@HOTMAIL.COM,,Fijo,25.68007858,-100.41080217,2010-07
"3018866",PANADERIA SIN NOMBRE,,"311812",PanificaciSn tradicional,0 a 5 personas,CALLE,RIOLITA,CALLE,GRANITO,CALLE,PROLONGACION RIOLITA,CALLE,FIERRO,"0",SN,,,"0",,COLONIA,PANNOMBREADERIA SIN,,,,"66210","19",NUEVO LEEN,"019",San Pedro Garza Garc,"0001",San Pedro Garza Garc,"0312","010","8183157070",,,Fijo,25.68595212,-100.41616894,2010-07
"7564001",PANADERIA SIN NOMBRE,,"311812",PanificaciSn tradicional,0 a 5 personas,CALLE,ANTIMONIO,CALLE,GRAFITO,CALLE,AZUFRE,CALLE,SODIO,"411",,,,"0",,COLONIA,SAN PEDRO 400,,,,"66210","19",NUEVO LEON,"019",San Pedro Garza Garcoa,"0001",San Pedro Garza Garcoa,"0011","010",,,,Fijo,25.68465728,-100.41271295,2019-11
"3019264",PANADERIA LUZ ELENA,,"311812",PanificaciLn tradicional,0 a 5 personas,CALLE,ORO,CALLE,PLOMO,CALLE,COBALTO,CALLE,ALUMINIO,"233",,,,,,COLONIA,SAN PEDRO 400,,,,"66621","19",NUEVO LEON,"019",San Pedro Garza Garcoa,"0001",San Pedro Garza Garcoa,"0026","010","8183157028",RICAR_GUILLE@HOTMAILO.COM,,Fijo,25.68326501,-100.41659791,2010-07
"7563995",TORTILLAS DE HARINA CASERAS,TORTILLAS DE HARINA CASERAS,"311813",Elaboraci n de tortillas de harina de trigo de forma tradicional,0 a 5 personas,CALLE,GRAFITO,CALLE,URANIO,CALLE,PLATA,CALLE,PLATA,"601",,,,"0",,COLONIA,SAN PEDRO 400,,,,"66210","19",NUEVO LEON,"019",San Pedro Garza Garcla,"0001",San Pedro Garza Garcla,"0011","025",,,,Fijo,25.68453072,-100.41463244,2019-11
"3019159",TORTILLAS DE HARINA FLORES,,"311813",Elaboraci n de tortillas de harina de trigo de forma tradicional,0 a 5 personas,AVENIDA,GENERAL EMILIANO ZAPATA,CALLE,GENERAL FELIPE ONGELES,AVENIDA,DIVISION DEL NORTE,AVENIDA,DIVISIAN DEL NORTE,"108",A,,,,,COLONIA,REVOLUCION,,,,"66210","19",NUEVO LEON,"019",San Pedro Garza GarcEa,"0001",San Pedro Garza GarcEa,"0327","013",,,,Fijo,25.6820708,-100.41095517,2010-07
"6366212",DALTILE M XICO,DALTILE MEXICO S DE RL DE CV,"327122",FabricaciEn de azulejos y losetas no refractarias,251 y mcs personas,OTRO (ESPECIFIQUE),LICENCIADO GUSTAVO DjAZ ORDAZ,CALLE,ZINC,AVENIDA,CORREGIDORA,AVENIDA,ENRIQUE GARCUA LEAL,"335",,,,"0",,COLONIA,SAN PEDRO GARZA GARCIA,,,,"66230","19",NUEVO LEON,"019",San Pedro Garza GarcIa,"0001",San Pedro Garza GarcIa,"0327","035",,LUIS.CARLOS.TREVINO@DALTILE.COM.MX,WWW.DALTILE.COM.MX,Fijo,25.67518777,-100.40305244,2010-07
"6369113",DALTILE MLXICO  MOSAICOS,DALTILE MEXICO S DE RL DE CV,"327122",FabricaciEn de azulejos y losetas no refractarias,251 y mcs personas,BOULEVARD,LICENCIADO GUSTAVO DjAZ ORDAZ,BOULEVARD,CORREGIDORA,AVENIDA,ZINC,AVENIDA,ENRIQUE GARCIA LEAL,"335",SN,,,"0",,COLONIA,EL OBISPO,,,,"66230","19",NUEVO LEON,"019",San Pedro Garza Garcja,"0001",San Pedro Garza Garcja,"0327","035",,,,Fijo,25.67522207,-100.40687388,2010-07
"7563381",LA GALERIA DEL MANTEL,,"314120","ConfecciIn de cortinas, blancos y similares",0 a 5 personas,CALLE,FRANCISCO I. MADERO,CALLE,SEBASTIAN LERDO DE TEJADA,CALLE,HERMANOS SERDAN,CALLE,BELISARIO DOMANGUEZ,"409",B,,,,,COLONIA,EL OBISPO,,,,"66210","19",NUEVO LEON,"019",San Pedro Garza GarcEa,"0001",San Pedro Garza GarcEa,"0331","006",,LAGALERIADELMANTEL@GMAIL.COM,,Fijo,25.68095719,-100.40420603,2019-11
"3019244",TORTILLERIA JACOBO,,"311813",ElaboraciIn de tortillas de harina de trigo de forma tradicional,0 a 5 personas,CALLE,URANIO,AVENIDA,MANUEL J. CLOUTHIER,CALLE,PLOMO,CALLE,PLATA,"129",,,,,,COLONIA,SAN PEDRO 400,,,,"66210","19",NUEVO LEON,"019",San Pedro Garza Garcla,"0001",San Pedro Garza Garcla,"0026","002","8183157165",,,Fijo,25.68137187,-100.414761,2010-07
"6420650",PASTAS MOLISABA SA DE CV,PASTAS MOLISABA SA DE CV,"311820",ElaboraciLn de galletas y pastas para sopa,251 y mcs personas,OTRO (ESPECIFIQUE),LICENCIADO GUSTAVO DtAZ ORDAZ,CALLE,MARLA CANT  TREVIOO,OTRO (ESPECIFIQUE),SIN REFERENCIA,CALLE,MARLA CANTN TREVI)O,"333",,,,"1",,COLONIA,LA LEONA,,,,"66210","19",NUEVO LE,"019",San Pedro Garza Garcta,"0001",San Pedro Garza Garcta,"0577","002",,CCASTILLO@GRUPOHARINAS.MX,WWW.GRUPOHARINAS.COM,Fijo,25.67483594,-100.41208887,2010-07
"3019176",TORTILLERIA EL MAIZAL,,"311830",ElaboraciIn de tortillas de maaz y molienda de nixtamal,0 a 5 personas,CALLE,CARBONO,CALLE,GRAFITO,CALLE,URANIO,CALLE,PLATA,"402",SN,,,"0",,COLONIA,SAN PEDRO 400,,,,"66210","19",NUEVO LEON,"019",San Pedro Garza Garcla,"0001",San Pedro Garza Garcla,"0011","018","8183158503",,,Fijo,25.68459015,-100.41405159,2010-07
"6364965",FIBERS MOXICO HOLDINGS S DE RL DE CV,FIBERS MEXICO HOLDINGS S DE RL DE CV,"325220",FabricaciXn de fibras qu micas,251 y mcs personas,OTRO (ESPECIFIQUE),LICENCIADO GUSTAVO DsAZ ORDAZ,CALLE,MARLA CANT  TREVIOO,OTRO (ESPECIFIQUE),SIN REFERENCIA,CALLE,MARLA CANTN TREVI)O,"333",,,,"0",,COLONIA,LA LEONA,,,,"66210","19",NUEVO LE,"019",San Pedro Garza Garcsa,"0001",San Pedro Garza Garcsa,"0577","002",,NORBERTO.ORDONEZ@LYCRA.COM,WWW.LYCRA.COM,Fijo,25.67483801,-100.41226682,2010-07
"7563997",TALLER DE COSTURA TITA,,"315223",ConfecciEn en serie de uniformes,0 a 5 personas,CALLE,ZINC,CALLE,GRAFITO,CALLE,AZUFRE,CALLE,CARBONO,"404",,,,"0",,COLONIA,SAN PEDRO 400,,,,"66210","19",NUEVO LEON,"019",San Pedro Garza Garcda,"0001",San Pedro Garza Garcda,"0011","005",,,,Fijo,25.68509019,-100.41361004,2019-11
"2990122",TALLER DE COSTURA,,"315225",ConfecciEn de prendas de vestir sobre medida,0 a 5 personas,ANDADOR,ANACLETO GUERRERO,CALLE,RAMIRO TAMEZ,AVENIDA,GENERAL EMILIANO ZAPATA,CALLE,NICLFORO ZAMBRANO,,SN,,,,,COLONIA,VISTA MONTAMA,,,,"66216","19",NUEVO LENN,"019",San Pedro Garza GarcAa,"0001",San Pedro Garza GarcAa,"0327","046",,,,Fijo,25.68226633,-100.40692004,2014-12
"3019315",ANTI SPONGE,,"325620","FabricaciGn de cosmcticos, perfumes y otras preparaciones de tocador",0 a 5 personas,AVENIDA,MANUEL J. CLOUTHIER,CALLE,LICENCIADO ADOLFO RUIZ CORTINES,CALLE,ANTONIO I. VILLARREAL,CALLE,ANTONIO D.AZ SOTO,"311",,,,,,COLONIA,VISTA MONTAZA,,,,"66216","19",NUEVO LENN,"019",San Pedro Garza GarcLa,"0001",San Pedro Garza GarcLa,"0327","033","8112762500",,,Fijo,25.67918256,-100.4080943,2010-07
"3019184",AISLAMIENTOS VALENZUELA,,"238311",ColocaciNn de muros falsos y aislamiento,11 a 30 personas,CALLE,GRAFITO,CALLE,POTASIO,AVENIDA,DIVISION DEL NORTE,CALLE,NAQUEL,"401",,,,"0",,COLONIA,SAN PEDRO 400,,,,"66210","19",NUEVO LEON,"019",San Pedro Garza Garcfa,"0001",San Pedro Garza Garcfa,"0011","031","8183155979",,,Fijo,25.68372406,-100.41185573,2010-07
"3017928",ALCORSA,"ALCORSA, S.A. DE C.V.","311940",ElaboraciSn de condimentos y aderezos,11 a 30 personas,CALLE,20 DE NOVIEMBRE,BOULEVARD,LICENCIADO GUSTAVO DIAZ ORDAZ,CALLE,MERCURIO,CALLE,ORO,"125",,,,,,COLONIA,LA LEONA,,,,"66106","19",NUEVO LE,"019",San Pedro Garza GarcIa,"0001",San Pedro Garza GarcIa,"0026","026","8181146007",,,Fijo,25.67759598,-100.41884903,2010-07
"6269148",ALVEG,ALVEG DISTRIBUCION QUIMICA SA DE CV,"434222",Comercio al por mayor de productos qutmicos para la industria farmaceutica y para otro uso industrial,51 a 100 personas,CARRETERA,SALTILLOMONTERREY,CALLE,NINGUNO,CALLE,NINGUNO,CALLE,NINGUNO,"0",SN,,,,,COLONIA,SANTA CATARINA,,,,"66350","19",NUEVO LETN,"019",San Pedro Garza Garcra,"0001",San Pedro Garza Garcra,"0577","053",,DZAMUDIO@ALVEG.COM.MX,WWW.ALVEG.COM.MX,Fijo,25.67467335,-100.40058196,2010-07
"8688708",TALLER DE SOLDADURA SIN  NOMBRE,TALLER DE SOLDADURA SIN  NOMBRE,"332320",Fabricaci n de productos de herrerya,0 a 5 personas,CALLE,FIERRO,CALLE,ALABASTRO,CALLE,CRISTAL,CALLE,CROMO,,SN,,,,,COLONIA,ALABASTRO,,,,"66210","19",NUEVO LEON,"019",San Pedro Garza Garcca,"0001",San Pedro Garza Garcca,"0312","002",,,,Fijo,25.68731615,-100.41645956,2019-11
"6802021",COMERCIAL TREVI O SUCURSAL SAN PEDRO,COMERCIAL TREVI O SA DE CV,"431110",Comercio al por mayor de abarrotes,11 a 30 personas,CALLE,AQUILES SERDoN,CALLE,PLATINO,CALLE,GENERAL FELIPE sNGELES,CALLE,RODOLFO GAYTPN,"222",,,,"0",,COLONIA,SAN PEDRO 400,,,,"66210","19",NUEVO LEON,"019",San Pedro Garza GarcEa,"0001",San Pedro Garza GarcEa,"0327","004",,,,Fijo,25.68293074,-100.41099931,2017-11
"6367948",WS PACKAGING MEXICO,WS PACKAGING MEXICO SA DE CV,"323119",ImpresiAn de formas continuas y otros impresos,31 a 50 personas,OTRO (ESPECIFIQUE),LICENCIADO GUSTAVO DcAZ ORDAZ,CALLE,ORO,CALLE,20 DE NOVIEMBRE,CALLE,MERCURIO,"333",,,,"11",,COLONIA,LA LEONA,,,,"66210","19",NUEVO LE,"019",San Pedro Garza Garcca,"0001",San Pedro Garza Garcca,"0026","026",,JMENDEZ@WSPACKAGING.COM,,Fijo,25.67550998,-100.41779158,2010-07
"2990116",TALLER DE MARCO SIN NOMBRE,,"339999",Otras industrias manufactureras,0 a 5 personas,AVENIDA,GENERAL EMILIANO ZAPATA,CALLE,ANTONIO I. VILLARREAL,CALLE,NICEFORO ZAMBRANO,CALLE,GENERAL  LVARO OBREGLN,"320",,,,,,COLONIA,REVOLUCION,,,,"66219","19",NUEVO LEON,"019",San Pedro Garza GarcLa,"0001",San Pedro Garza GarcLa,"0327","021",,,,Fijo,25.68201307,-100.40748189,2010-07
"8461945",HERRERIA SIN NOMBRE,HERRERIA SIN NOMBRE,"332320",FabricaciSn de productos de herrer a,0 a 5 personas,CALLE,HELIO,CALLE,PLATINO,CALLE,POTASIO,CALLE,BORO,"1306",,,,"0",SN,COLONIA,SAN PEDRO 400,,,,"66210","19",NUEVO LEON,"019",San Pedro Garza Garcca,"0001",San Pedro Garza Garcca,"0011","026","8110181579",,,Fijo,25.68573409,-100.41175423,2019-11
"3019230",TALLER DE HERRERIA Y PINTURA SANCHEZ,,"332320",Fabricaci n de productos de herrerEa,0 a 5 personas,AVENIDA,LAS TORRES,CALLE,PLATINO,CALLE,MAGNESIO,CALLE,MANGANESO,"302",,,,,,COLONIA,COL HABITACIONAL SAN PEDRO,,,,"66210","19",NUEVO LETN,"019",San Pedro Garza Garc a,"0001",San Pedro Garza Garc a,"0026","003","8183159807",,,Fijo,25.67998187,-100.41587613,2010-07
"7563993",TALLER DE HERRERIA SIN NOMBRE,,"332320",Fabricaci n de productos de herrerca,0 a 5 personas,CALLE,PLATINO,CALLE,BORO,CALLE,HELIO,CALLE,POTASIO,"514",,,,"0",,COLONIA,SAN PEDRO 400,,,,"66210","19",NUEVO LEON,"019",San Pedro Garza Garcca,"0001",San Pedro Garza Garcca,"0011","026",,,,Fijo,25.68530111,-100.41101768,2019-11
"7564228",HERRERIA,,"332320",FabricaciCn de productos de herrerma,0 a 5 personas,CALLE,ANTONIO DIAZ SOTO,CALLE,LICENCIADO ADOLFO RUIZ CORTINES,CALLE,ADAN HERNANDEZ ROJAS,CALLE,ADOLFO DE LA HUERTA,,SN,,,,,COLONIA,VISTA MONTAAA,,,,"66216","19",NUEVO LENN,"019",San Pedro Garza Garc,"0001",San Pedro Garza Garc,"0327","030","8181376893",,,Fijo,25.67916712,-100.40584614,2019-11
"9269369",ABARROTES,ABARROTES,"431110",Comercio al por mayor de abarrotes,0 a 5 personas,CALLE,GENERAL FELIPE ANGELES,CALLE,PEDRO N. PERALES,CALLE,MANUEL HUERTA,CALLE,LUCRECIA TORIN,"0",SN,,,"0",,COLONIA,VISTA MONTARA 5 SECTOR,,,,"66216","19",NUEVO LENN,"019",San Pedro Garza GarcOa,"0001",San Pedro Garza GarcOa,"0609","010",,,,Fijo,25.68456933,-100.40910834,2020-11
"8626146",ACEROS Y TROQUELADOS,,"332710",Maquinado de piezas met.licas para maquinaria y equipo en general,0 a 5 personas,CALLE,GENERAL BERNARDO REYES,CALLE,LICENCIADO ADOLFO RUIZ CORTINES,CALLE,ARTURO B. DE LA GARZA,CALLE,ADOLFO DE LA HUERTA,"404",,,,,,COLONIA,VISTA MONTAAA,,,,"66216","19",NUEVO LENN,"019",San Pedro Garza GarcAa,"0001",San Pedro Garza GarcAa,"0327","027","8184677181",,,Fijo,25.68097926,-100.40611359,2019-11
"7564108",COMPRA DE PLASTICO,,"434314",Comercio al por mayor de desechos de pldstico,0 a 5 personas,CALLE,CARBONO,CALLE,COBALTO,CALLE,PLOMO,CALLE,ZINC,"0",SN,,,"0",,COLONIA,SAN PEDRO 400,,,,"66210","19",NUEVO LEON,"019",San Pedro Garza Garcra,"0001",San Pedro Garza Garcra,"0011","015","8116789527",,,Fijo,25.68304983,-100.41395781,2019-11
"6369112",TROQUELES Y MATRICES SA DE CV,TROQUELES Y MATRICES SA DE CV,"334410",Fabricaci n de componentes electr nicos,101 a 250 personas,OTRO (ESPECIFIQUE),LICENCIADO GUSTAVO DnAZ ORDAZ,CALLE,MARLA CANT  TREVIOO,AVENIDA,CORREGIDORA,CALLE,LUCIO BLANCO,"333",KM 333,,,"0",,COLONIA,LA LEONA,,,,"66210","19",NUEVO LE,"019",San Pedro Garza Garcna,"0001",San Pedro Garza Garcna,"0577","003",,RTORRES@TYMSA.COM.MX,,Fijo,25.67464902,-100.40536424,2010-07
"9279452",CALZADO INDUSTRIAL DURANGO,CALZADO INDUSTRIAL DURANGO SA DE CV,"432130",Comercio al por mayor de calzado,0 a 5 personas,BOULEVARD,LICENCIADO GUSTAVO DIAZ ORDAZ,CALLE,MARIA CANTU TREVIOO,AVENIDA,CORREGIDORA,CALLE,LUCIO BLANCO,,SN,,,,,COLONIA,LA LEONA,,,,"66210","19",NUEVO LE,"019",San Pedro Garza GarcIa,"0001",San Pedro Garza GarcIa,"0577","003",,,,Fijo,25.67436338,-100.40362659,2020-11
"6365377",SUEZWT&S MDXICO S DE RL DE CV,SUEZWT&S MEXICO S DE RL DE CV,"325999",FabricaciMn de otros productos quimicos,11 a 30 personas,OTRO (ESPECIFIQUE),LICENCIADO GUSTAVO D AZ ORDAZ,CALLE,ZINC,BOULEVARD,LICENCIADO GUSTAVO D AZ ORDAZ,CALLE,MERCURIO,"333",,,,"0",,COLONIA,UNIDAD SAN PEDRO,,,,"66220","19",NUEVO LEAN,"019",San Pedro Garza Garc a,"0001",San Pedro Garza Garc a,"0026","025",,SERGIO-DAVID.RODRIGUEZ@GE.COM,,Fijo,25.67542965,-100.41444006,2010-07
"6365311",CUPRUM DIVISION VENTANAS,CUPRUM SA DE CV,"331310",Industria bEsica del aluminio,6 a 10 personas,CALLE,ZINC,BOULEVARD,LICENCIADO GUSTAVO DIAZ ORDAZ,AVENIDA,ENRIQUE GARCIA LEAL,OTRO (ESPECIFIQUE),N/A,,SN,,,,,CORREDOR INDUSTRIAL,ENRIQUE GARCIA LEAL,,,,"66219","19",NUEVO LEGN,"019",San Pedro Garza GarcIa,"0001",San Pedro Garza GarcIa,"0327","035","8183898272",,,Fijo,25.67617472,-100.41414327,2010-07
"7563876",ABARROTES ALBARADO,ABARROTES ALBARADO,"461110","Comercio al por menor en tiendas de abarrotes, ultramarinos y miscelsneas",0 a 5 personas,CALLE,NIQUEL,CALLE,ALUMINIO,CALLE,FIERRO,CALLE,MANGANESO,"205",,,,"0",,COLONIA,MANGANECIO,,,,"66210","19",NUEVO LEIN,"019",San Pedro Garza Garcra,"0001",San Pedro Garza Garcra,"0312","016",,,,Fijo,25.68501729,-100.41666341,2019-11
"2992796",ABARROTES EL CABRITO,,"461110","Comercio al por menor en tiendas de abarrotes, ultramarinos y miscelsneas",0 a 5 personas,CALLE,PLAN DEL RIO,AVENIDA,CORREGIDORA,PRIVADA,NINGUNO,CALLE,PASEO DEL SEMINARIO,,SN,,,,,FRACCIONAMIENTO,LUCIO BLANCO 3ER SECT,,,,"66218","19",NUEVO LEAN,"019",San Pedro Garza GarcTa,"0001",San Pedro Garza GarcTa,"0577","058",,,,Fijo,25.67278375,-100.40178262,2014-12
"3019775",ABARROTES CORONADO,,"461110","Comercio al por menor en tiendas de abarrotes, ultramarinos y miscel neas",0 a 5 personas,CALLE,GENERAL FRANCISCO VILLA,CALLE,CORREGIDIRA,CALLE,NINGUNO,CALLE,LUCIO BLANCO,"340",,,,,,COLONIA,LUCIO BLANCO 2DO SECT,,,,"66218","19",NUEVO LEAN,"019",San Pedro Garza GarcTa,"0001",San Pedro Garza GarcTa,"0577","044","8183361063",,,Fijo,25.67148743,-100.40375608,2010-07
"3019180",ABARROTES ALONSO,,"461110","Comercio al por menor en tiendas de abarrotes, ultramarinos y miscel neas",0 a 5 personas,CALLE,POTASIO,CALLE,AZUFRE,CALLE,GRAFITO,CALLE,SODIO,"428",,,,"0",,COLONIA,SAN PEDRO 400,,,,"66210","19",NUEVO LEON,"019",San Pedro Garza Garcra,"0001",San Pedro Garza Garcra,"0011","020","8183158411",,,Fijo,25.68480594,-100.41193563,2010-07
"3018865",ABARROTES ALVARADO,,"461110","Comercio al por menor en tiendas de abarrotes, ultramarinos y miscel neas",0 a 5 personas,CALLE,MANGANESO,CALLE,ALUMINIO,CALLE,PROLONGACION RIOLITA,CALLE,MICA,"205",,,,"0",,COLONIA,MICA,,,,"66210","19",NUEVO LECN,"019",San Pedro Garza Garc,"0001",San Pedro Garza Garc,"0312","014","8184014871",ABARROTES_ALVARADO@HOTMAIL.COM,,Fijo,25.68537625,-100.41605555,2010-07
"2990136",ABARROTES DANY,,"461110","Comercio al por menor en tiendas de abarrotes, ultramarinos y miscel neas",0 a 5 personas,CALLE,LUCIO BLANCO,CALLE,GENERAL ALVARO OBREGON,CALLE,ANTONIO I. VILLARREAL,CALLE,PLAN DE AYALA,"114",,,,,,COLONIA,UNIDAD REVOLUCION 2 SECTOR,,,,"66219","19",NUEVO LEEN,"019",San Pedro Garza GarcSa,"0001",San Pedro Garza GarcSa,"0327","019",,,,Fijo,25.68137304,-100.40819271,2014-12
"7563987",PRODUCTOS DE BELLEZA SIN NOMBRE,,"433210",Comercio al por mayor de artBculos de perfumeria y cosmtticos,0 a 5 personas,CALLE,CROMO,CALLE,COBALTO,CALLE,GRAFITO,CALLE,FIERRO,,SN,,,,,COLONIA,SAN PEDRO 400,,,,"66210","19",NUEVO LEON,"019",San Pedro Garza Garcra,"0001",San Pedro Garza Garcra,"0026","030",,,,Fijo,25.68455639,-100.41725311,2019-11
"9135976",PRODUCTOS 3R,,"435419",Comercio al por mayor de otra maquinaria y equipo de uso general,0 a 5 personas,AVENIDA,GENERAL EMILIANO ZAPATA,CALLE,LUIS CABRERA,CALLE,GENERAL FELIPE ONGELES,CALLE,AQUILES SERDPN,"201",,,,,,COLONIA,UNIDAD REVOLUCION,,,,"66219","19",NUEVO LEEN,"019",San Pedro Garza GarcEa,"0001",San Pedro Garza GarcEa,"0327","007",,,,Fijo,25.68205354,-100.41007527,2019-11
"7563941",ABARROTES CRUZ,,"461110","Comercio al por menor en tiendas de abarrotes, ultramarinos y miscel neas",0 a 5 personas,CALLE,ORO,CALLE,PLOMO,AVENIDA,MANUEL J. CLOUTHIER,CALLE,FIERRO,"130",,,,,,COLONIA,SAN PEDRO 400,,,,"66210","19",NUEVO LEON,"019",San Pedro Garza Garcra,"0001",San Pedro Garza Garcra,"0026","019",,,,Fijo,25.68204921,-100.41682504,2019-11
"3019290",ABARROTES DE LUNA,,"461110","Comercio al por menor en tiendas de abarrotes, ultramarinos y miscel neas",0 a 5 personas,CALLE,NICEFORO ZAMBRANO,CALLE,NICEFORO ZAMBRANO,CALLE,PORFIRIO GONZALEZ,ANDADOR,ANACLETO GUERRERO,"304",,,,,,COLONIA,VISTA MONTAEA,,,,"66216","19",NUEVO LENN,"019",San Pedro Garza Garcra,"0001",San Pedro Garza Garcra,"0327","040",,,,Fijo,25.6835657,-100.40631908,2010-07
"8626144",ABARROTES ERE,,"461110","Comercio al por menor en tiendas de abarrotes, ultramarinos y miscel",0 a 5 personas,CALLE,PLATINO,CALLE,COBALTO,CALLE,PLOMO,CALLE,ALUMINIO,"206",,,,,,COLONIA,SAN PEDRO 400,,,,"66210","19",NUEVO LEON,"019",San Pedro Garza Garcra,"0001",San Pedro Garza Garcra,"0026","011",,,,Fijo,25.6822581,-100.41594774,2019-11
"2990180",ABARROTES CARMEN,,"461110","Comercio al por menor en tiendas de abarrotes, ultramarinos y miscelpneas",0 a 5 personas,CALLE,BENJAMIN HILL,CALLE,MANUEL J. CLOUTHIER,CALLE,EULALIO GUZMAN,CALLE,FALIX I.,"101",,,,,,COLONIA,EL OBISPO,,,,"66214","19",NUEVO LEON,"019",San Pedro Garza Garcra,"0001",San Pedro Garza Garcra,"0331","046","8183156928",,,Fijo,25.67774937,-100.40076842,2014-12
"2990143",ABARROTES CASTILLO,,"461110","Comercio al por menor en tiendas de abarrotes, ultramarinos y miscel",0 a 5 personas,CALLE,BELISARIO DOMINGUEZ,ANDADOR,NINGUNO,CALLE,LIBRADO RIVERA,CALLE,LIBRADO RIVERA,"513",A,,,,,COLONIA,EL OBISPO,,,,"66210","19",NUEVO LEON,"019",San Pedro Garza Garcra,"0001",San Pedro Garza Garcra,"0331","003","8183155307",,,Fijo,25.68162873,-100.40373902,2014-12
"6725659",7 ELEVEN SUC 1311 CORREGIDORA,7-ELEVEN MEXICO SA DE CV,"462112",Comercio al por menor en minisupers,6 a 10 personas,AVENIDA,Licenciado Gustavo Draz Ordaz,AVENIDA,Corregidora,CALLE,Santa Paulina,CALLE,San Juan,"600",,,,"0",,COLONIA,LUCIO BLANCO,,,,"66350","19",NUEVO LEAN,"019",San Pedro Garza Garcra,"0001",San Pedro Garza Garcra,"0577","004",,ANA.OLIVARES@7-ELEVEN.COM.MX,WWW.7-ELEVEN.COM.MX,Fijo,25.67438741,-100.40222671,2016-01
"9323906",INTEGRADORA COMERCIAL DE AZUCAR Y DERIVADOS,INTEGRADORA COMERCIAL DE AZUCAR Y DERIVADOS SA DE CV,"431199",Comercio al por mayor de otros alimentos,0 a 5 personas,BOULEVARD,GUSTAVO DIAZ ORDAZ,CALZADA,SAN PEDRO,AVENIDA,ROGELIO CANT  GDMEZ,BOULEVARD,ANTONIO L. RODRDGUEZ,"140",,SANTA MARIA,PISO 5,"0",,COLONIA,SANTA MARIA,EDIFICIO COMERCIAL Y DE SERVIC,SANTA MARIA PARQUE CENTRAL,,,"19",NUEVO LERN,"039",Monterrey,"0001",Monterrey,"1826","031",,MFELIX@SANTOS.COM.MX,WWW.SANTOS.COM,Fijo,25.66796239,-100.37409537,2020-11
"6235169",EL MAS POLLO SUCURSAL47 GRAFITO,ALIMENTOS CALIDAD OPTIMA SA DE CV,"431122",Comercio al por mayor de carne de aves,6 a 10 personas,CALLE,GRAFITO,CALLE,FIERRO,CALLE,ORO,CALLE,CROMO,"333",,,,,,COLONIA,FOMERREY 22,,,,"66357","19",NUEVO LE N,"019",San Pedro Garza Garcra,"0001",San Pedro Garza Garcra,"0026","021",,VENTAS@ALCO.MX,WWW.ALCO.MX,Fijo,25.68453538,-100.41682981,2011-03
"3019187",ABARROTES CAMARILLO,,"461110","Comercio al por menor en tiendas de abarrotes, ultramarinos y miscelaneas",0 a 5 personas,CALLE,POTASIO,CALLE,GRAFITO,CALLE,COBALTO,CALLE,SODIO,"312",,,,"0",,COLONIA,SAN PEDRO 400,,,,"66210","19",NUEVO LEON,"019",San Pedro Garza Garcra,"0001",San Pedro Garza Garcra,"0011","021","8183157003",,,Fijo,25.68284647,-100.411933,2010-07
"3019171",ABARROTES,,"461110","Comercio al por menor en tiendas de abarrotes, ultramarinos y miscelaneas",0 a 5 personas,CALLE,ANTIMONIO,CALLE,AZUFRE,CALLE,TUNGSTENO,CALLE,COBRE,"534",,,,"0",,COLONIA,SAN PEDRO 400,,,,"66210","19",NUEVO LEON,"019",San Pedro Garza Garcra,"0001",San Pedro Garza Garcra,"0011","008","8183156477",,,Fijo,25.68663006,-100.41279712,2010-07
"3019178",ABARROTES,,"461110","Comercio al por menor en tiendas de abarrotes, ultramarinos y miscelaneas",0 a 5 personas,CALLE,COBRE,CALLE,GRAFITO,CALLE,AZUFRE,CALLE,ANTIMONIO,"405",,,,"0",,COLONIA,SAN PEDRO 400,,,,"66210","19",NUEVO LEON,"019",San Pedro Garza Garcra,"0001",San Pedro Garza Garcra,"0011","002","8183156304",,,Fijo,25.68450021,-100.41312146,2010-07
"6225014",ABARROTES,ABARROTES SANDRA,"461110","Comercio al por menor en tiendas de abarrotes, ultramarinos y miscel",0 a 5 personas,CALLE,GENERAL FRANCISCO VILLA,ANDADOR,RICARDO FLORES MAGON,AVENIDA,DIVISION DEL NORTE,AVENIDA,DIVISIAN DEL NORTE,,SN,,,,,COLONIA,PARQUE,,,,"66219","19",NUEVO LE N,"019",San Pedro Garza Garc,"0001",San Pedro Garza Garc,"0327","050","8183155762",,,Fijo,25.67914837,-100.41006353,2010-07
"7564101",ABARROTES,,"461110","Comercio al por menor en tiendas de abarrotes, ultramarinos y miscel",0 a 5 personas,CALLE,PLATA,CALLE,GRAFITO,CALLE,COBALTO,CALLE,URANIO,"314",,,,"0",,COLONIA,SANPEDRO 400,,,,"66210","19",NUEVO LE N,"019",San Pedro Garza Garcra,"0001",San Pedro Garza Garcra,"0011","024",,,,Fijo,25.68395307,-100.4144576,2019-11
"6366885",MONTACARGAS YALE DE MEXICO SA DE CV,MONTACARGAS YALE DE MEXICO SA DE CV,"435419",Comercio al por mayor de otra maquinaria y equipo de uso general,0 a 5 personas,BOULEVARD,LICENCIADO GUSTAVO DrAZ ORDAZ,BOULEVARD,MARLA CANT  TREVIOO,AVENIDA,CORREGIDORA,CALLE,LUCIO BLANCO,"333",KM,,,,,COLONIA,LA LEONA,,,,"66230","19",NUEVO LE,"019",San Pedro Garza Garcra,"0001",San Pedro Garza Garcra,"0577","003",,GRIVERA@YALEMEX.COM.MX,,Fijo,25.67459768,-100.40505115,2010-07
"2990170",ABARROTES ARIES,,"461110","Comercio al por menor en tiendas de abarrotes, ultramarinos y miscel neas",0 a 5 personas,CALLE,MANUEL RIVERA ANAYA,CALLE,SAN EVARISTO,CALLE,FRANCISCO I. MADERO,CALLE,LANDON,"304",C,,,,,COLONIA,EL OBISPO,,,,"66214","19",NUEVO LEON,"019",San Pedro Garza Garcra,"0001",San Pedro Garza Garcra,"0331","033",,,,Fijo,25.6806257,-100.40011955,2014-12
"3019228",ABARROTES DELGADO,,"461110","Comercio al por menor en tiendas de abarrotes, ultramarinos y miscelaneas",0 a 5 personas,CALLE,TITANIO,CALLE,MERCURIO,AVENIDA,LAS TORRES,CALLE,MAGNESIO,,SN,,,,,COLONIA,TRABAJADORES,,,,"66210","19",NUEVO LEON,"019",San Pedro Garza Garcra,"0001",San Pedro Garza Garcra,"0026","045","8183157212",,,Fijo,25.67927623,-100.41541777,2010-07
"8626149",ABARROTES ANY,,"461110","Comercio al por menor en tiendas de abarrotes, ultramarinos y miscelaneas",0 a 5 personas,CALLE,FRANCISCO I. MADERO,CALLE,SANTA CATARINA,CALLE,CANTERA,CALLE,CANTERA,"100",A,,,,,COLONIA,LOS PINOS 2DO SECT,,,,"66239","19",NUEVO LESN,"019",San Pedro Garza Garcra,"0001",San Pedro Garza Garcra,"0488","007",,,,Fijo,25.67204436,-100.39641612,2019-11
"8936830",HARINAS LA LEONA,HARINAS SA DE CV,"431199",Comercio al por mayor de otros alimentos,0 a 5 personas,BOULEVARD,LICENCIADO GUSTAVO DrAZ ORDAZ,CALLE,CAMINO AL CLUB DE TIRO,CALLE,NINGUNO,CALLE,AARON SAENZ GARZA,"333",,,,"0",,COLONIA,LA LEONA,,,,"66210","19",NUEVO LE,"019",San Pedro Garza GarcRa,"0001",San Pedro Garza GarcRa,"0577","002",,JMJAQUEZ@GRUPOHARINAS.COM.MX,WWW.GRUPOHARINAS.COM.MX,Fijo,25.67481536,-100.41032092,2019-11
"3019140",ABARROTES AVALOS,,"461110","Comercio al por menor en tiendas de abarrotes, ultramarinos y miscel neas",0 a 5 personas,CALLE,GENERAL FRANCISCO VILLA,CALLE,ANTONIO I. VILLARREAL,ANDADOR,RICARDO FLORES MAGON,CALLE,ANTONIO I. VILLARREAL,,SN,,,,,COLONIA,RICARDO FLORES MAGON,,,,"66219","19",NUEVO LEFN,"019",San Pedro Garza Garc,"0001",San Pedro Garza Garc,"0327","061","8183157876",,,Fijo,25.67899967,-100.40934527,2010-07
"2990129",ABARROTES DON JOSE,,"461110","Comercio al por menor en tiendas de abarrotes, ultramarinos y miscel neas",0 a 5 personas,AVENIDA,MANUEL J. CLOUTHIER,CALLE,ANTONIO I. VILLARREAL,CALLE,RICARDO FLORES MAGON,CALLE,ANTONIO DLAZ SOTO,"221",,,,,,COLONIA,REVOLUCION,,,,"66219","19",NUEVO LEON,"019",San Pedro Garza Garc,"0001",San Pedro Garza Garc,"0327","032",,,,Fijo,25.67937749,-100.40908507,2014-12
"3019167",ABA FRUT LA ROSITA,,"461110","Comercio al por menor en tiendas de abarrotes, ultramarinos y miscel neas",0 a 5 personas,CALLE,PLATINO,CALLE,TUNGSTENO,CALLE,HELIO,CALLE,POTASIO,"518",,,,"0",,COLONIA,SAN PEDRO,,,,"66210","19",NUEVO LEON,"019",San Pedro Garza Garcra,"0001",San Pedro Garza Garcra,"0011","034","8115027145",,,Fijo,25.6855441,-100.4109712,2010-07
"3019787",ABARROTES BARCENAS,,"461110","Comercio al por menor en tiendas de abarrotes, ultramarinos y miscelaneas",0 a 5 personas,CALLE,LUCIO BLANCO,PRIVADA,PROLONGACION JIMENEZ,CALLE,MARIA CANTU TREVINO,BOULEVARD,LICENCIADO GUSTAVO D,"453",,,,,,COLONIA,LA LEONA,,,,"66210","19",NUEVO LE,"019",San Pedro Garza Garc,"0001",San Pedro Garza Garc,"0577","002","8181070129",,,Fijo,25.66987563,-100.4079534,2010-07
"8944091",ABARROTES BERTHA G,,"461110","Comercio al por menor en tiendas de abarrotes, ultramarinos y miscelaneas",0 a 5 personas,CALLE,ALUMINIO,CALLE,PLOMO,AVENIDA,MANUEL J. CLOUTHIER,CALLE,ORO,,SN,,,,,COLONIA,SAN PEDRO 400,,,,"66210","19",NUEVO LEON,"019",San Pedro Garza Garcra,"0001",San Pedro Garza Garcra,"0026","009",,,,Fijo,25.68130386,-100.41648778,2019-11
"2992688",ABARROTES EL FAR,,"461110","Comercio al por menor en tiendas de abarrotes, ultramarinos y miscellneas",0 a 5 personas,CALLE,GRAFITO,CALLE,ALUMINIO,CALLE,PLATINO,CALLE,PRIVADA ALUMINIO,,SN,,,,,COLONIA,SAN PEDRO 400,,,,"66210","19",NUEVO LEON,"019",San Pedro Garza Garcra,"0001",San Pedro Garza Garcra,"0026","038",,,,Fijo,25.68443945,-100.4159987,2014-12
"7563878",ABARROTERA SIN NOMBRE,,"461110","Comercio al por menor en tiendas de abarrotes, ultramarinos y miscellneas",0 a 5 personas,CALLE,ALUMINIO,CALLE,NIQUEL,CALLE,GRAFITO,CALLE,FIERRO,"0",SN,,,"0",,COLONIA,NIQUEL,,,,"66210","19",NUEVO LE,"019",San Pedro Garza Garcra,"0001",San Pedro Garza Garcra,"0312","019","8187040136",GRILLERMIN_@HOTMAIL.COM,,Fijo,25.68474741,-100.41605429,2019-11
"8633275",ABARROTES BRISA,,"461110","Comercio al por menor en tiendas de abarrotes, ultramarinos y miscellneas",0 a 5 personas,CALLE,SEBASTIAN LERDO DE TEJADA,CALLE,PEDRO M. PERALES,CALLE,FRANCISCO I. MADERO,AVENIDA,GENERAL EMILIANO ZAPATA,"510",A,,,,,COLONIA,EL OBISPO,,,,"66214","19",NUEVO LEON,"019",San Pedro Garza GarcAa,"0001",San Pedro Garza GarcAa,"0331","013",,,,Fijo,25.68017327,-100.4038587,2019-11
"3019146",ABARROTES REVOLUCION,,"461110","Comercio al por menor en tiendas de abarrotes, ultramarinos y misceleneas",0 a 5 personas,CALLE,AQUILES SERDAN,CALLE,LUIS CABRERA,CALLE,GENERAL FELIPE  NGELES,AVENIDA,GENERAL EMILIANO ZAPATA,,SN,,,,,COLONIA,UNIDAD REVOLUCION,,,,"66219","19",NUEVO LEEN,"019",San Pedro Garza GarcAa,"0001",San Pedro Garza GarcAa,"0327","007",,,,Fijo,25.68355816,-100.40992067,2010-07
"8688937",ABARROTES MAYELA,ABARROTES MAYELA,"461110","Comercio al por menor en tiendas de abarrotes, ultramarinos y miscelineas",0 a 5 personas,CALLE,SANTA CATARINA,AVENIDA,IGNACIO MORONES PRIETO,ANDADOR,NINGUNO,CALLE,CANTERA,"310",A,,,,,COLONIA,LOS PINOS,,,,"66239","19",NUEVO LESN,"019",San Pedro Garza GarcTa,"0001",San Pedro Garza GarcTa,"0488","036",,,,Fijo,25.67139322,-100.39539743,2019-11
"3019328",ABARROTES Y DEPOSITO EL  VENADO,,"461212",Comercio al por menor de cerveza,0 a 5 personas,CALLE,SEBASTIAN LERDO DE TEJADA,CALLE,ANDADOR CORREGIDORA,CALLE,EULALIO GUZMAN,CALLE,EULALIO GUZMAN,,SN,,,,,COLONIA,EL OBISPO,,,,"66214","19",NUEVO LEON,"019",San Pedro Garza GarcEa,"0001",San Pedro Garza GarcEa,"0331","020",,,,Fijo,25.67977057,-100.40338469,2010-07
"3019340",ABARROTES Y DEPOSITO LA AVENIDA,,"461110","Comercio al por menor en tiendas de abarrotes, ultramarinos y miscelineas",6 a 10 personas,AVENIDA,GENERAL EMILIANO ZAPATA,CALLE,LICENCIADO JOSE BENITEZ,CALLE,PEDRO M. PERALES,CALLE,GENERAL BERNARDO REYES,"424",A,,,,,COLONIA,EL OBISPO,,,,"66214","19",NUEVO LEON,"019",San Pedro Garza GarcEa,"0001",San Pedro Garza GarcEa,"0331","012","8183155431",,,Fijo,25.67943447,-100.40403447,2010-07
"3019234",ABARROTES MERCADO,,"461110","Comercio al por menor en tiendas de abarrotes, ultramarinos y miscelineas",0 a 5 personas,CALLE,ORO,CALLE,MERCURIO,CALLE,MANGANESO,CALLE,ALUMINIO,"215",,,,,,COLONIA,UNIDAD HAB SAN PEDRO,,,,"66210","19",NUEVO LEAN,"019",San Pedro Garza Garc,"0001",San Pedro Garza Garc,"0026","051","8183157151",,,Fijo,25.67903724,-100.41706463,2010-07
"3019202",ABARROTES MENDOZA,,"461110","Comercio al por menor en tiendas de abarrotes, ultramarinos y misceleneas",0 a 5 personas,CALLE,PLATA,CALLE,COBALTO,CALLE,PLOMO,CALLE,CARBONO,"209",,,,"0",,COLONIA,SAN PEDRO 400,,,,"66210","19",NUEVO LEON,"019",San Pedro Garza Garcra,"0001",San Pedro Garza Garcra,"0011","016","8183157432",,,Fijo,25.68212774,-100.41436674,2010-07
"3019287",ABARROTES LG,,"461110","Comercio al por menor en tiendas de abarrotes, ultramarinos y misceleneas",0 a 5 personas,CALLE,LUCRECIA TORIN,CALLE,LUCRECIA TORIZ,CALLE,LUCRECIA TORIZ,ANDADOR,FRANCISCO CRRDENAS,,SN,,,,,COLONIA,VISTA MONTARA,,,,"66210","19",NUEVO LENN,"019",San Pedro Garza Garcra,"0001",San Pedro Garza Garcra,"0327","038",,,,Fijo,25.6841827,-100.40694879,2010-07
"2992975",ABARROTES HUERTA,,"461110","Comercio al por menor en tiendas de abarrotes, ultramarinos y misceleneas",0 a 5 personas,CALLE,SANTA CATARINA,AVENIDA,IGNACIO MORONES PRIETO,ANDADOR,NINGUNO,CALLE,CANTERA,"102",,,,,,COLONIA,LOS PINOS,,,,"66239","19",NUEVO LESN,"019",San Pedro Garza GarcTa,"0001",San Pedro Garza GarcTa,"0488","036",,,,Fijo,25.67156137,-100.39537995,2014-12
"8829583",ABARROTES HUGO,,"461110","Comercio al por menor en tiendas de abarrotes, ultramarinos y misceleneas",0 a 5 personas,CALLE,MAGNESIO,CALLE,PLATINO,CALLE,POTASIO,CALLE,POTASIO,"1308",,,,"0",,COLONIA,SAN PEDRO 400,,,,"66210","19",NUEVO LEON,"019",San Pedro Garza Garcra,"0001",San Pedro Garza Garcra,"0011","030",,,,Fijo,25.68437057,-100.41152894,2019-11
"8812521",ABARROTES SIN NOMBRE,,"461110","Comercio al por menor en tiendas de abarrotes, ultramarinos y misceleneas",0 a 5 personas,CALLE,SODIO,CALLE,AZUFRE,CALLE,TUNGSTENO,CALLE,ANTIMONIO,"536",,,,"0",,COLONIA,SAN PEDRO 400,,,,"66210","19",NUEVO LEON,"019",San Pedro Garza Garcra,"0001",San Pedro Garza Garcra,"0011","009",,,,Fijo,25.68641528,-100.41239015,2019-11
"7563386",ABARROTES SIN NOMBRE,,"461110","Comercio al por menor en tiendas de abarrotes, ultramarinos y miscelineas",0 a 5 personas,CALLE,FRANCISCO I. MADERO,CALLE,ANDADOR CORREGIDORA,CALLE,HERMANOS SERDAN,CALLE,BELISARIO DOMANGUEZ,"617",C,,,,,COLONIA,EL OBISPO,,,,"66210","19",NUEVO LEON,"019",San Pedro Garza Garcra,"0001",San Pedro Garza Garcra,"0331","007",,,,Fijo,25.68089048,-100.40283846,2019-11
"7564105",ABARROTES SIN NOMBRE,,"461110","Comercio al por menor en tiendas de abarrotes, ultramarinos y miscelineas",0 a 5 personas,CALLE,POTASIO,CALLE,GRAFITO,CALLE,COBALTO,CALLE,GRAFITO,"319",,,,"0",,COLONIA,SAN PEDRO 400,,,,"66210","19",NUEVO LEON,"019",San Pedro Garza Garcra,"0001",San Pedro Garza Garcra,"0011","032",,,,Fijo,25.68306964,-100.41186113,2019-11
"7563994",ABARROTES SIN NOMBRE,,"461110","Comercio al por menor en tiendas de abarrotes, ultramarinos y miscelineas",0 a 5 personas,CALLE,BORO,CALLE,PLATINO,CALLE,POTASIO,CALLE,HELIO,"1307",,,,"0",,COLONIA,SAN PEDRO 400,,,,"66210","19",NUEVO LEON,"019",San Pedro Garza Garcra,"0001",San Pedro Garza Garcra,"0011","026",,,,Fijo,25.68528785,-100.41156265,2019-11
"7563998",ABARROTES SIN NOMBRE,,"461110","Comercio al por menor en tiendas de abarrotes, ultramarinos y miscelineas",0 a 5 personas,CALLE,COBRE,CALLE,GRAFITO,CALLE,AZUFRE,CALLE,ZINC,"430",,,,"0",,COLONIA,SAN PEDRO 400,,,,"66210","19",NUEVO LEON,"019",San Pedro Garza Garcra,"0001",San Pedro Garza Garcra,"0011","001",,,,Fijo,25.68548871,-100.41320916,2019-11
"7563991",ABARROTES SIN NOMBRE,,"461110","Comercio al por menor en tiendas de abarrotes, ultramarinos y miscelineas",0 a 5 personas,CALLE,ANTIMONIO,CALLE,AZUFRE,CALLE,TUNGSTENO,CALLE,COBRE,"0",SN,,,"0",,COLONIA,SAN PEDRO 400,,,,"66210","19",NUEVO LEON,"019",San Pedro Garza Garcra,"0001",San Pedro Garza Garcra,"0011","008",,,,Fijo,25.68645722,-100.41279747,2019-11
"7564227",ABARROTES Y MERCERIA GONZALEZ,,"461110","Comercio al por menor en tiendas de abarrotes, ultramarinos y miscelineas",0 a 5 personas,AVENIDA,MANUEL J. CLOUTHIER,PRIVADA,MANUEL J. CLOUTHIER,CALLE,ADAN HERNANDEZ ROJAS,CALLE,ANTONIO DAAZ SOTO,"503",,,,,,COLONIA,VISTA MONTAZA,,,,"66216","19",NUEVO LENN,"019",San Pedro Garza Garc,"0001",San Pedro Garza Garc,"0327","058",,,,Fijo,25.6785932,-100.40526096,2019-11
"7563892",ABARROTES MIREYA,,"461110","Comercio al por menor en tiendas de abarrotes, ultramarinos y miscelineas",0 a 5 personas,CALLE,PALMA,CALLE,PROLONGACION JIMENEZ,CALLE,SIN REFERENCIA,BOULEVARD,LICENCIADO GUSTAVO D,"126",,,,,,COLONIA,PLAN DE AYALA,,,,"66210","19",NUEVO LEAN,"019",San Pedro Garza Garc,"0001",San Pedro Garza Garc,"0577","002",,,,Fijo,25.66867426,-100.41039242,2019-11
"3019131",ABARROTES JAVIER,,"461110","Comercio al por menor en tiendas de abarrotes, ultramarinos y miscelineas",0 a 5 personas,CALLE,ANTONIO DIAZ SOTO,AVENIDA,DIVISION DEL NORTE,CALLE,RICARDO FLORES MAGON,AVENIDA,MANUEL J. CLOUTHIER,"130",,,,,,COLONIA,REVOLUCION PRIMER SECTOR,,,,"66219","19",NUEVO LEON,"019",San Pedro Garza GarcCa,"0001",San Pedro Garza GarcCa,"0327","031",,,,Fijo,25.68015595,-100.41118203,2010-07
"2992768",ABARROTES JAZMIN,,"461110","Comercio al por menor en tiendas de abarrotes, ultramarinos y miscelineas",0 a 5 personas,AVENIDA,IGNACIO MORONES PRIETO,CALLE,GENERAL FRANCISCO VILLA,CALLE,NINGUNO,OTRO (ESPECIFIQUE),NINGUNO,"112",,,,,,COLONIA,VALLE DE VASCONCELOS,,,,"66238","19",NUEVO LE N,"019",San Pedro Garza Garc,"0001",San Pedro Garza Garc,"0539","009","811700206",JAIMEGAUNA19698@.OUTLOCK.COM.MX,,Fijo,25.66563765,-100.41961293,2014-12
"2990098",ARTICULOS DE REGALO,,"465912",Comercio al por menor de regalos,0 a 5 personas,CALLE,CARBONO,CALLE,COBALTO,CALLE,GRAFITO,CALLE,PLATA,"316",,,,"0",,COLONIA,SAN PEDRO 400,,,,"66210","19",NUEVO LEON,"019",San Pedro Garza Garcra,"0001",San Pedro Garza Garcra,"0011","017",,,,Fijo,25.68367253,-100.41404287,2014-12
"2990111",ABARROTES HERNANDEZ,,"461110","Comercio al por menor en tiendas de abarrotes, ultramarinos y miscelineas",0 a 5 personas,CALLE,LUIS CABRERA,CALLE,AQUILES SERDAN,AVENIDA,GENERAL EMILIANO ZAPATA,CALLE,ROQUE GONZILEZ GARZA,"214",D,,,,,COLONIA,REVOLUCION,,,,"66219","19",NUEVO LEON,"019",San Pedro Garza Garc,"0001",San Pedro Garza Garc,"0327","006",,,,Fijo,25.68336425,-100.41008534,2014-12
"3019173",ABARROTES HERNANDEZ,,"461110","Comercio al por menor en tiendas de abarrotes, ultramarinos y miscelineas",0 a 5 personas,CALLE,COBRE,CALLE,TUNGSTENO,CALLE,AZUFRE,CALLE,ZINC,"522",SN,,,"0",,COLONIA,SAN PEDRO 400,,,,"66210","19",NUEVO LEON,"019",San Pedro Garza Garcra,"0001",San Pedro Garza Garcra,"0011","007","8124243200",ABARROTESLA22@HOTMAIL.COM,,Fijo,25.68634148,-100.41322484,2010-07
"2990149",ABARROTES SEGOVIA,,"461110","Comercio al por menor en tiendas de abarrotes, ultramarinos y miscelineas",0 a 5 personas,CALLE,PANFILO NAJERA,CALLE,ANDADOR CORREGIDORA,CALLE,SEBASTIAN LERDO DE TEJADA,CALLE,FRANCISCO I. MADERO,"617",A,,,,,COLONIA,EL OBISPO,,,,"66210","19",NUEVO LEON,"019",San Pedro Garza GarcEa,"0001",San Pedro Garza GarcEa,"0331","009",,,,Fijo,25.68034736,-100.40290325,2014-12
"2990156",ABARROTES PACO,,"461212",Comercio al por menor de cerveza,0 a 5 personas,CALLE,GENERAL BERNARDO REYES,CALLE,LICENCIADO JOSE BENITEZ,CALLE,PEDRO M. PERALES,AVENIDA,GENERAL EMILIANO ZAPATA,"429",B,,,,,COLONIA,EL OBISPO,,,,"66214","19",NUEVO LEON,"019",San Pedro Garza GarcAa,"0001",San Pedro Garza GarcAa,"0331","012",,,,Fijo,25.68023196,-100.40516105,2014-12
"2990091",ABARROTES PAEZ,,"462112",Comercio al por menor en minisupers,0 a 5 personas,PRIVADA,PLATINO 400,CALLE,ALUMINIO,CALLE,URANIO,CALLE,AZUFRE,"305",,,,,,COLONIA,PRIVADA PLATINO,,,,"66210","19",NUEVO LEPN,"019",San Pedro Garza Garcra,"0001",San Pedro Garza Garcra,"0312","017",,,,Fijo,25.68451058,-100.41566464,2014-12
"3019337",ABARROTES PAOLA,,"462112",Comercio al por menor en minisupers,0 a 5 personas,CALLE,GENERAL BERNARDO REYES,AVENIDA,MANUEL J. CLOUTHIER,CALLE,PEDRO M. PERALES,AVENIDA,GENERAL EMILIANO ZAPATA,"511",B,,,,,COLONIA,EL OBISPO,,,,"66214","19",NUEVO LEON,"019",San Pedro Garza GarcAa,"0001",San Pedro Garza GarcAa,"0331","019",,,,Fijo,25.67865843,-100.40385006,2010-07
"3019223",ABARROTES MARIBEL,,"461110","Comercio al por menor en tiendas de abarrotes, ultramarinos y miscelineas",0 a 5 personas,AVENIDA,LAS TORRES,CALLE,ZINC,CALLE,MERCURIO,AVENIDA,LAS TORRES,,SN,,,,,COLONIA,LAS TORRES,,,,"66210","19",NUEVO LEEN,"019",San Pedro Garza Garcra,"0001",San Pedro Garza Garcra,"0026","049","8183156766",,,Fijo,25.67939523,-100.4131372,2010-07
"3019224",ACEITES Y LUBRICANTES,,"468420","Comercio al por menor de aceites y grasas lubricantes, aditivos y similares para vehmculos de motor",0 a 5 personas,AVENIDA,LAS TORRES,CALLE,ZINC,CALLE,MERCURIO,AVENIDA,LAS TORRES,"920",,,,,,COLONIA,LAS TORRES,,,,"66210","19",NUEVO LEEN,"019",San Pedro Garza Garcra,"0001",San Pedro Garza Garcra,"0026","049","8184011197",,,Fijo,25.67940185,-100.41315916,2010-07
"3019188",ACEITES Y ACCESORIOS LA CARCACHA,,"468420","Comercio al por menor de aceites y grasas lubricantes, aditivos y similares para vehmculos de motor",0 a 5 personas,CALLE,POTASIO,CALLE,GRAFITO,CALLE,COBALTO,CALLE,SODIO,"302",A,,,"0",,COLONIA,SAN PEDRO 400,,,,"66210","19",NUEVO LEON,"019",San Pedro Garza Garcra,"0001",San Pedro Garza Garcra,"0011","021","8117664485",LUMANROVEZ@HOTMAIL.COM,,Fijo,25.68247305,-100.41193073,2010-07
"2990148",ABARROTES SILVIA,,"461110","Comercio al por menor en tiendas de abarrotes, ultramarinos y miscelmneas",0 a 5 personas,CALLE,SEBASTIAN LERDO DE TEJADA,CALLE,BELISARIO DOMINGUEZ,CALLE,FRANCISCO I. MADERO,CALLE,BELISARIO DOMMNGUEZ,,SN,,,,,COLONIA,EL OBISPO,,,,"66210","19",NUEVO LEON,"019",San Pedro Garza GarcEa,"0001",San Pedro Garza GarcEa,"0331","006","8119571329",,,Fijo,25.68171261,-100.40469576,2010-07
"2990084",ABARROTES SIN NOMBRE,,"462112",Comercio al por menor en minisupers,0 a 5 personas,CALLE,BORO,CALLE,POTASIO,CALLE,PLATINO,CALLE,AZUFRE,"1314",,,,"0",,COLONIA,SAN PEDRO 400,,,,"66210","19",NUEVO LEON,"019",San Pedro Garza Garcra,"0001",San Pedro Garza Garcra,"0011","035","8183158093",,,Fijo,25.68513108,-100.41136178,2014-12
"2992709",ABARROTES SIN NOMBRE,,"461110","Comercio al por menor en tiendas de abarrotes, ultramarinos y miscelmneas",0 a 5 personas,CALLE,PLATINO,CALLE,MANGANESO,CALLE,MERCURIO,CALLE,ALUMINIO,"204",,,,,,COLONIA,UNIDAD HAB SAN PEDRO,,,,"66210","19",NUEVO LEAN,"019",San Pedro Garza Garc,"0001",San Pedro Garza Garc,"0026","014",,,,Fijo,25.67930042,-100.41627951,2014-12
"3019344",ABARROTES SIN NOMBRE,,"461110","Comercio al por menor en tiendas de abarrotes, ultramarinos y miscelmneas",0 a 5 personas,CALLE,ESTEBAN V,CALLE,LANDON,CALLE,SAN EVARISTO,CALLE,SAN EVARISTO,"810",,,,,,COLONIA,VILLAS DEL OBISPO,,,,"66210","19",NUEVO LEEN,"019",San Pedro Garza Garcra,"0001",San Pedro Garza Garcra,"0331","032","8183159170",,,Fijo,25.68040907,-100.39891685,2010-07
"3019239",ABARROTES SIN NOMBRE,,"461110","Comercio al por menor en tiendas de abarrotes, ultramarinos y miscelmneas",0 a 5 personas,CALLE,ZINC,AVENIDA,MANUEL J. CLOUTHIER,CALLE,PLOMO,CALLE,CARBONO,"116",,,,,,COLONIA,SAN PEDRO 400,,,,"66210","19",NUEVO LEON,"019",San Pedro Garza Garcra,"0001",San Pedro Garza Garcra,"0026","023","8183155158",,,Fijo,25.68099231,-100.41359825,2010-07
"3019170",ABARROTES SIN NOMBRE,,"461110","Comercio al por menor en tiendas de abarrotes, ultramarinos y miscelmneas",0 a 5 personas,CALLE,AZUFRE,CALLE,POTASIO,CALLE,SODIO,CALLE,TUNGSTENO,"0",SN,,,"0",,COLONIA,SAN PEDRO 400,,,,"66210","19",NUEVO LEON,"019",San Pedro Garza Garcra,"0001",San Pedro Garza Garcra,"0011","019",,,,Fijo,25.68521385,-100.41225995,2010-07
"3019142",ABARROTES SIN NOMBRE,,"461110","Comercio al por menor en tiendas de abarrotes, ultramarinos y miscelmneas",0 a 5 personas,CALLE,GENERAL FELIPE ANGELES,CALLE,GENERAL FLVARO OBREGON,CALLE,ANTONIO DIAZ SOTO,CALLE,LUIS CABRERA,"116",,,,,,COLONIA,REVOLUCION,,,,"66219","19",NUEVO LEON,"019",San Pedro Garza GarcOa,"0001",San Pedro Garza GarcOa,"0327","015",,,,Fijo,25.68056869,-100.41020039,2010-07
"3019229",ABARROTES SIN NOMBRE,,"461110","Comercio al por menor en tiendas de abarrotes, ultramarinos y miscelmneas",0 a 5 personas,CALLE,TITANIO,CALLE,MERCURIO,AVENIDA,LAS TORRES,CALLE,MAGNESIO,,SN,,,,,COLONIA,TRABAJADORES,,,,"66210","19",NUEVO LEON,"019",San Pedro Garza Garcra,"0001",San Pedro Garza Garcra,"0026","045",,,,Fijo,25.67945701,-100.41539674,2010-07
"3018862",ABARROTES PEPE,,"461110","Comercio al por menor en tiendas de abarrotes, ultramarinos y miscelmneas",0 a 5 personas,CALLE,URANIO,CALLE,GRAFITO,CALLE,AZUFRE,CALLE,ALUMINIO,"402",,,,,,COLONIA,PRIVADA PLATINO,,,,"66210","19",NUEVO LEPN,"019",San Pedro Garza Garcra,"0001",San Pedro Garza Garcra,"0312","017","8180446986",,,Fijo,25.68459547,-100.41479214,2010-07
"2990088",ABARROTES PEPE,,"461110","Comercio al por menor en tiendas de abarrotes, ultramarinos y miscelmneas",0 a 5 personas,CALLE,AZUFRE,CALLE,ALUMINIO,CALLE,PROLONGACION RIOLITA,CALLE,MICA,"0",SN,,,"0",,COLONIA,AZUFRE,,,,"66210","19",NUEVO LECN,"019",San Pedro Garza Garc,"0001",San Pedro Garza Garc,"0312","013",,,,Fijo,25.68608039,-100.41590879,2014-12
"3019179",ABARROTES PEREZ,,"461110","Comercio al por menor en tiendas de abarrotes, ultramarinos y miscelmneas",0 a 5 personas,CALLE,SODIO,CALLE,GRAFITO,CALLE,AZUFRE,CALLE,ANTIMONIO,"436",,,,"0",,COLONIA,SAN PEDRO 400,,,,"66210","19",NUEVO LEON,"019",San Pedro Garza Garcra,"0001",San Pedro Garza Garcra,"0011","010",,,,Fijo,25.68513969,-100.41236841,2010-07
"6216558",ABARROTES PICAZO,,"461110","Comercio al por menor en tiendas de abarrotes, ultramarinos y miscelmneas",0 a 5 personas,CALLE,CARBONO,CALLE,COBALTO,CALLE,PLOMO,CALLE,ZINC,"223",,,,"0",,COLONIA,SAN PEDRO 400,,,,"66210","19",NUEVO LEON,"019",San Pedro Garza Garcra,"0001",San Pedro Garza Garcra,"0011","015",,,,Fijo,25.68244009,-100.41395062,2010-07
"8369517",ABARROTES SIN NOMBRE,,"461110","Comercio al por menor en tiendas de abarrotes, ultramarinos y miscelmneas",0 a 5 personas,CALLE,YODO,CALLE,POTASIO,CALLE,FLUOR,CALLE,LITIO,"1306",,,,"0",,COLONIA,SAN PEDRO 400,,,,"66210","19",NUEVO LEON,"019",San Pedro Garza Garcra,"0001",San Pedro Garza Garcra,"0011","046",,,,Fijo,25.68688431,-100.41143417,2019-11
"3019242",ABARROTES RAMIREZ,,"461110","Comercio al por menor en tiendas de abarrotes, ultramarinos y misceleneas",0 a 5 personas,AVENIDA,MANUEL J. CLOUTHIER,CALLE,PLATA,CALLE,CARBONO,CALLE,PLOMO,"701",,,,,,COLONIA,SAN PEDRO 400,,,,"66210","19",NUEVO LEON,"019",San Pedro Garza Garcra,"0001",San Pedro Garza Garcra,"0026","012",,,,Fijo,25.68041856,-100.41430548,2010-07
"3019790",ABARROTES RUBI,,"461110","Comercio al por menor en tiendas de abarrotes, ultramarinos y misceleneas",0 a 5 personas,CALLE,LUCIO BLANCO,CALLE,MARIA CANTU TREVIeO,AVENIDA,CORREGIDORA,BOULEVARD,LICENCIADO GUSTAVO DrAZ ORDAZ,"317",,,,,,COLONIA,LA LEONA,,,,"66210","19",NUEVO LE,"019",San Pedro Garza Garcra,"0001",San Pedro Garza Garcra,"0577","003","8183368871",,,Fijo,25.67236975,-100.40326835,2010-07
"3019348",ABARROTES LA GUERA,,"461110","Comercio al por menor en tiendas de abarrotes, ultramarinos y misceleneas",0 a 5 personas,CALLE,FRANCISCO I. MADERO,CALLE,LANDON,CALLE,FELIX I.,CALLE,JUAN SARABIA,"828",,,,,,COLONIA,VILLAS DEL OBISPO,,,,"66210","19",NUEVO LEEN,"019",San Pedro Garza Garcra,"0001",San Pedro Garza Garcra,"0331","035",,,,Fijo,25.67927307,-100.39911672,2010-07
"3019360",ABARROTES TONY,,"461110","Comercio al por menor en tiendas de abarrotes, ultramarinos y miscelineas",0 a 5 personas,CALLE,LANDON,CALLE,MANUEL J CLOUTHIER,CALLE,EULALIO GUZMAN,CALLE,ALEJANDRO VI,,SN,,,,,COLONIA,VILLAS DEL OBISPO,,,,"66214","19",NUEVO LEEN,"019",San Pedro Garza Garcra,"0001",San Pedro Garza Garcra,"0331","049","8183156693",,,Fijo,25.6775323,-100.39987042,2010-07
"3019356",ABARROTES TORRES,,"461110","Comercio al por menor en tiendas de abarrotes, ultramarinos y miscelineas",0 a 5 personas,CALLE,MANUEL J. CLOUTHIER,CALLE,LANDON,CALLE,FELIX I.,CALLE,EULALIO GUZMON,"811",,,,,,COLONIA,VILLAS DEL OBISPO,,,,"66214","19",NUEVO LEEN,"019",San Pedro Garza Garcra,"0001",San Pedro Garza Garcra,"0331","047","8181291042",,,Fijo,25.67756426,-100.40015926,2010-07
"2990130",ABARROTES MORA,,"461110","Comercio al por menor en tiendas de abarrotes, ultramarinos y miscelineas",0 a 5 personas,CALLE,PLAN DE GUADALUPE,CALLE,ANTONIO DIAZ SOTO,CALLE,GENERAL DLVARO OBREGON,CALLE,RICARDO FLORES MAGEN,"118",,,,,,COLONIA,UNIDAD REVOLUCION 2 SECTOR,,,,"66219","19",NUEVO LEEN,"019",San Pedro Garza GarcSa,"0001",San Pedro Garza GarcSa,"0327","017",,,,Fijo,25.68046693,-100.4088571,2014-12
"3019166",ABARROTES ROSY,,"461110","Comercio al por menor en tiendas de abarrotes, ultramarinos y miscelineas",0 a 5 personas,CALLE,TUNGSTENO,CALLE,POTASIO,CALLE,PLATINO,CALLE,HELIO,"1316",,,,"0",,COLONIA,SAN PEDRO,,,,"66210","19",NUEVO LEON,"019",San Pedro Garza Garcra,"0001",San Pedro Garza Garcra,"0011","034","8117849227",,,Fijo,25.68598455,-100.41135723,2010-07
"3019323",ABARROTES GLORIA,,"461110","Comercio al por menor en tiendas de abarrotes, ultramarinos y miscelineas",0 a 5 personas,CALLE,FRANCISCO I. MADERO,CALLE,ANDADOR CORREGIDORA,CALLE,SEBASTIAN LERDO DE TEJADA,CALLE,PANFILO N JERA,"626",B,,,,,COLONIA,EL OBISPO,,,,"66210","19",NUEVO LEON,"019",San Pedro Garza GarcEa,"0001",San Pedro Garza GarcEa,"0331","009",,,,Fijo,25.68062665,-100.40207153,2010-07
"3018860",ABARROTES GONZALES,ABARROTES GONZALES,"461110","Comercio al por menor en tiendas de abarrotes, ultramarinos y miscelineas",0 a 5 personas,CALLE,RIOLITA,CALLE,TUNGSTENO,CALLE,PROLONGACION RIOLITA,CALLE,TUNGSTENO,"615",,,,"0",,COLONIA,RIOLITA,,,,"66210","19",NUEVO LEON,"019",San Pedro Garza Garc,"0001",San Pedro Garza Garc,"0312","005",,,,Fijo,25.68695662,-100.41565334,2010-07
"3019783",ABARROTES TREVI O,,"461110","Comercio al por menor en tiendas de abarrotes, ultramarinos y miscelineas",0 a 5 personas,CALLE,PALMA,CALLE,PROLONGACION JIMENEZ,CALLE,SIN REFERENCIA,BOULEVARD,LICENCIADO GUSTAVO D,"140",,,,,,COLONIA,PLAN DE AYALA,,,,"66210","19",NUEVO LEAN,"019",San Pedro Garza Garc,"0001",San Pedro Garza Garc,"0577","002",,,,Fijo,25.66817389,-100.41111769,2010-07
"3019765",ABARROTES GONZALEZ,,"461110","Comercio al por menor en tiendas de abarrotes, ultramarinos y miscelineas",0 a 5 personas,CALLE,PLAN DEL RIO,CALLE,NINGUNO,AVENIDA,CORREGIDORA,CALLE,NINGUNO,"228",A,,,,,COLONIA,LUCIO BLANCO,,,,"66210","19",NUEVO LEAN,"019",San Pedro Garza Garcra,"0001",San Pedro Garza Garcra,"0577","005","8183363183",,,Fijo,25.67283824,-100.40120832,2010-07
"3019151",ABARROTES NG,,"461110","Comercio al por menor en tiendas de abarrotes, ultramarinos y miscelineas",0 a 5 personas,CALLE,AQUILES SERDAN,CALLE,PLAN DE GUADALUPE,CALLE,PLAN DE AYALA,AVENIDA,GENERAL EMILIANO ZAPATA,,SN,,,,,COLONIA,REVOLUCION IV SECTOR,,,,"66219","19",NUEVO LEON,"019",San Pedro Garza Garc,"0001",San Pedro Garza Garc,"0327","009","8183729932",,,Fijo,25.68348726,-100.40893551,2010-07
"3020496",ABARROTES SANCHEZ,,"461110","Comercio al por menor en tiendas de abarrotes, ultramarinos y miscelineas",0 a 5 personas,CALLE,FERNANDO DAVILA REYES,PRIVADA,DAVILA REYES,CALLE,NINGUNO,CALLE,SIN REFERENCIA,"243",,,,,,COLONIA,LOS PINOS,,,,"66239","19",NUEVO LESN,"019",San Pedro Garza GarcSa,"0001",San Pedro Garza GarcSa,"0488","030","8183366916",,,Fijo,25.67180531,-100.39402318,2010-07
"3019272",ABARROTES MA BELEM,,"461110","Comercio al por menor en tiendas de abarrotes, ultramarinos y miscelineas",0 a 5 personas,CALLE,GRAFITO,CALLE,ORO,CALLE,ALUMINIO,CALLE,COBALTO,"334",,,,,,COLONIA,SAN PEDRO 400,,,,"66210","19",NUEVO LEON,"019",San Pedro Garza Garcra,"0001",San Pedro Garza Garcra,"0026","022","8383157577",,,Fijo,25.68445871,-100.41618128,2010-07
"3019343",ABARROTES Y TECATE SIX,,"461110","Comercio al por menor en tiendas de abarrotes, ultramarinos y miscelineas",0 a 5 personas,CALLE,GENERAL BERNARDO REYES,CALLE,ADAN HERNANDEZ ROJAS,AVENIDA,MANUEL J. CLOUTHIER,AVENIDA,MANUEL J. CLOUTHIER,"406",A,,,,,COLONIA,EL OBISPO,,,,"66214","19",NUEVO LEON,"019",San Pedro Garza Garc,"0001",San Pedro Garza Garc,"0331","018",,,,Fijo,25.67966956,-100.40490487,2010-07
"2992974",ABARROTES EVODIO,,"461110","Comercio al por menor en tiendas de abarrotes, ultramarinos y miscelsneas",0 a 5 personas,CALLE,CANTERA,CALLE,FRANCISCO I. MADERO,ANDADOR,CANTERA,ANDADOR,CANTERA,,SN,,,,,COLONIA,LOS PINOS 2DO SECT,,,,"66239","19",NUEVO LESN,"019",San Pedro Garza Garcra,"0001",San Pedro Garza Garcra,"0488","040",,,,Fijo,25.67193366,-100.39644853,2014-12
"7563893",ABARROTES ESTHER,,"461110","Comercio al por menor en tiendas de abarrotes, ultramarinos y miscelsneas",0 a 5 personas,CALLE,PALMA,CALLE,PROLONGACION JIMENEZ,CALLE,SIN REFERENCIA,BOULEVARD,LICENCIADO GUSTAVO D,"179",,,,,,COLONIA,PLAN DE AYALA,,,,"66210","19",NUEVO LEAN,"019",San Pedro Garza Garc,"0001",San Pedro Garza Garc,"0577","002",,,,Fijo,25.66795404,-100.4132089,2019-11
"6216560",ARREGLOS FLORALES,,"466312",Comercio al por menor de plantas y flores naturales,0 a 5 personas,CALLE,ANTONIO I. VILLARREAL,CALLE,ADOLFO DE LA HUERTA,CALLE,GENERAL ELVARO OBREGON,CALLE,ADOLFO DE LA HUERTA,"143",,,,,,COLONIA,VISTA MONTAAA,,,,"66216","19",NUEVO LENN,"019",San Pedro Garza GarcOa,"0001",San Pedro Garza GarcOa,"0327","022",,,,Fijo,25.68149785,-100.40755036,2010-07
"7564230",ABARROTES SUPER MAX,,"461110","Comercio al por menor en tiendas de abarrotes, ultramarinos y misceleneas",0 a 5 personas,AVENIDA,MANUEL J. CLOUTHIER,PRIVADA,MANUEL J. CLOUTHIER,CALLE,LICENCIADO ADOLFO RUIZ CORTINES,CALLE,ANTONIO DOAZ SOTO,,SN,,,,,COLONIA,VISTA MONTAZA,,,,"66219","19",NUEVO LENN,"019",San Pedro Garza GarcIa,"0001",San Pedro Garza GarcIa,"0327","034","8182525408",,,Fijo,25.67890812,-100.40677025,2019-11
"2992769",ABARROTES RIVERA,,"461110","Comercio al por menor en tiendas de abarrotes, ultramarinos y misceleneas",0 a 5 personas,CALLE,GENERAL FRANCISCO VILLA,CALLE,NINGUNO,AVENIDA,IGNACIO MORONES PRIETO,OTRO (ESPECIFIQUE),NINGUNO,,SN,,,,,COLONIA,JESUS M GARZA,,,,"66238","19",NUEVO LEGN,"019",San Pedro Garza GarcTa,"0001",San Pedro Garza GarcTa,"0539","009","8183365897",,,Fijo,25.66511939,-100.41744357,2010-07
"3019227",ABARROTES LUGO,,"461110","Comercio al por menor en tiendas de abarrotes, ultramarinos y misceleneas",0 a 5 personas,CALLE,URANIO,AVENIDA,LAS TORRES,CALLE,MERCURIO,CALLE,TITANIO,,SN,,,,,COLONIA,SAN PEDRO 400,,,,"66210","19",NUEVO LEON,"019",San Pedro Garza Garcra,"0001",San Pedro Garza Garcra,"0026","046","8183156878",,,Fijo,25.6793241,-100.41499085,2010-07
"8461947",ABARROTES JULIAN,,"461110","Comercio al por menor en tiendas de abarrotes, ultramarinos y misceleneas",0 a 5 personas,CALLE,LUCIO BLANCO,CALLE,MARIA CANTU TREVIeO,AVENIDA,CORREGIDORA,BOULEVARD,LICENCIADO GUSTAVO DrAZ ORDAZ,"409",,,,,,COLONIA,LUCIO BLANCO 2DO SECT,,,,"66210","19",NUEVO LEAN,"019",San Pedro Garza GarcTa,"0001",San Pedro Garza GarcTa,"0577","003",,,,Fijo,25.67013422,-100.40672623,2019-11
"8279457",ABARROTES FILEMON,,"461110","Comercio al por menor en tiendas de abarrotes, ultramarinos y misceleneas",0 a 5 personas,AVENIDA,IGNACIO MORONES PRIETO,AVENIDA,JOSE MARIANO JIMENEZ,AVENIDA,JOSE VASCONCELOS,AVENIDA,JOSN VASCONCELOS,"655",,,,,,COLONIA,LUCIO BLANCO,,,,"66238","19",NUEVO LEAN,"019",San Pedro Garza Garc,"0001",San Pedro Garza Garc,"0577","025",,,,Fijo,25.66630978,-100.41052801,2019-11
"2990181",ABARROTES FLOR,,"461110","Comercio al por menor en tiendas de abarrotes, ultramarinos y misceleneas",0 a 5 personas,CALLE,BENJAMIN HILL,CALLE,MANUEL J. CLOUTHIER,CALLE,EULALIO GUZMAN,CALLE,FALIX I.,,SN,,,,,COLONIA,EL OBISPO,,,,"66214","19",NUEVO LEON,"019",San Pedro Garza Garcra,"0001",San Pedro Garza Garcra,"0331","046","8183156476",,,Fijo,25.67850521,-100.40058363,2014-12
"3019789",ABARROTES RODRIGUEZ,,"461110","Comercio al por menor en tiendas de abarrotes, ultramarinos y misceleneas",0 a 5 personas,CALLE,LUCIO BLANCO,CALLE,MARIA CANTU TREVIeO,AVENIDA,CORREGIDORA,BOULEVARD,LICENCIADO GUSTAVO DrAZ ORDAZ,"367",,,,,,COLONIA,LA LEONA,,,,"66210","19",NUEVO LE,"019",San Pedro Garza Garcra,"0001",San Pedro Garza Garcra,"0577","003",,DANILU.EXPREES@HOTMAIL.COM,,Fijo,25.67154534,-100.40475698,2010-07
"3019201",ABARROTES Z INFANTE,,"461110","Comercio al por menor en tiendas de abarrotes, ultramarinos y miscelsneas",0 a 5 personas,CALLE,PLATA,CALLE,COBALTO,CALLE,PLOMO,CALLE,CARBONO,"201",,,,"0",,COLONIA,SAN PEDRO 400,,,,"66210","19",NUEVO LEON,"019",San Pedro Garza Garcra,"0001",San Pedro Garza Garcra,"0011","016",,,,Fijo,25.68186013,-100.41436472,2010-07
"3019162",ABARROTES LA CIMA UNO,,"461110","Comercio al por menor en tiendas de abarrotes, ultramarinos y miscelsneas",0 a 5 personas,CALLE,COBRE,CALLE,TUNGSTENO,CALLE,ESTAEO,CALLE,URANIO,"602",,,,"0",,COLONIA,SAN PEDRO 400,,,,"66210","19",NUEVO LEON,"019",San Pedro Garza Garcra,"0001",San Pedro Garza Garcra,"0011","040",,,,Fijo,25.68737741,-100.4127242,2010-07
"8633441",ABARROTES TITA,,"461110","Comercio al por menor en tiendas de abarrotes, ultramarinos y miscelsneas",0 a 5 personas,CALLE,FRANCISCO I. MADERO,CALLE,ANDADOR CORREGIDORA,CALLE,SEBASTIAN LERDO DE TEJADA,CALLE,PANFILO N JERA,"626",A,,,,,COLONIA,EL OBISPO,,,,"66210","19",NUEVO LEON,"019",San Pedro Garza GarcEa,"0001",San Pedro Garza GarcEa,"0331","009",,,,Fijo,25.68059085,-100.40191653,2019-11
"2992701",CANCELES Y VENTANAS WINDOW STAR,,"467114",Comercio al por menor de vidrios y espejos,0 a 5 personas,AVENIDA,MANUEL J. CLOUTHIER,CALLE,PLATA,CALLE,URANIO,CALLE,PLOMO,"603",,,,,,COLONIA,SAN PEDRO 400,,,,"66210","19",NUEVO LEON,"019",San Pedro Garza Garcra,"0001",San Pedro Garza Garcra,"0026","002","8116501551",,,Fijo,25.68051044,-100.4147307,2014-12
"3018870",DEPOSITO BRAYAN,,"461212",Comercio al por menor de cerveza,0 a 5 personas,CALLE,CROMO,CALLE,GRAFITO,CALLE,MARGA,CALLE,FIERRO,"0",SN,,,"0",,COLONIA,PALETRIA ABY,,,,"66210","19",NUEVO LE N,"019",San Pedro Garza Garcra,"0001",San Pedro Garza Garcra,"0312","015",,,,Fijo,25.68572643,-100.41707136,2010-07
"8369521",DEPOSITO LOS CUATES,,"461212",Comercio al por menor de cerveza,0 a 5 personas,CALLE,SEBASTIAN LERDO DE TEJADA,CALLE,BENJAMIN HILL,CALLE,ANDADOR CORREGIDORA,CALLE,SEBASTI N LERDO DE TEJADA,,SN,,,,,COLONIA,EL OBISPO,,,,"66210","19",NUEVO LEON,"019",San Pedro Garza GarcEa,"0001",San Pedro Garza GarcEa,"0331","044",,LICPABLOORTEGA@HOTMAIL.COM,,Fijo,25.6783244,-100.40133185,2019-11
"6779822",DALTILE MEXICO CENTRO DE DISTRIBUCION,DALTILE MEXICO COMERCIAL S DE RL DE CV,"467112",Comercio al por menor de pisos y recubrimientos cercmicos,51 a 100 personas,BOULEVARD,DIAZ ORDAZ,AVENIDA,CORREGIDORA,CALLE,ZINC,CALLE,ENRIQUE GARCIA LEAL,"335",,,,,,COLONIA,SAN PEDRO,,,,"66230","19",NUEVO LEON,"019",San Pedro Garza Garcra,"0001",San Pedro Garza Garcra,"0327","035",,LUIS.CARLOS.TREVINO@DALTILE.COM.MX,WWW.DLTILE.COM.MX,Fijo,25.67524131,-100.40865515,2017-03
"6367111",COOLFORCE ZONE,COOLFORCE ZONE SA DE CV,"466112",Comercio al por menor de electrodomgsticos menores y aparatos de lsnea blanca,0 a 5 personas,AVENIDA,IGNACIO MORONES PRIETO,AVENIDA,JOSN MARIANO JIMPNEZ,PRIVADA,JOSV VASCONCELOS,AVENIDA,JOSN VASCONCELOS,"709",,,,,,COLONIA,CENTRO SAN PEDRO,,,,"66230","19",NUEVO LEAN,"019",San Pedro Garza Garc,"0001",San Pedro Garza Garc,"0577","025",,MAYRAMENDOZA_@HOTMAIL.COM,,Fijo,25.66604837,-100.41240814,2012-06
"3019192",CARNICERIA Y FRUTERIA Y ABARROTES VALDEZ,,"461110","Comercio al por menor en tiendas de abarrotes, ultramarinos y misceleneas",0 a 5 personas,CALLE,COBALTO,CALLE,ANTIMONIO,CALLE,SODIO,CALLE,GRAFITO,"0",SN,,,"0",,COLONIA,SAN PEDRO 400,,,,"66210","19",NUEVO LEON,"019",San Pedro Garza Garcra,"0001",San Pedro Garza Garcra,"0011","011","8183157241",,,Fijo,25.68266091,-100.41242273,2010-07
"3019182",CARNICERIA FUENTES,NOELIA MATA HERNANDEZ,"461121",Comercio al por menor de carnes rojas,0 a 5 personas,CALLE,AZUFRE,CALLE,PLATINO,CALLE,POTASIO,CALLE,MAGNESIO,,SN,,,,,COLONIA,SAN PEDRO 400,,,,"66210","19",NUEVO LEON,"019",San Pedro Garza Garcra,"0001",San Pedro Garza Garcra,"0011","029","8183159289",NANDIN_FUENTES@HOTMAIL.COM,,Fijo,25.68464422,-100.41118891,2010-07
"8815498",DULCERIA SILVA,,"461160",Comercio al por menor de dulces y materias primas para reposterna,0 a 5 personas,CALLE,GRAFITO,CALLE,ALUMINIO,CALLE,FIERRO,CALLE,NAQUEL,"205",,,,"0",,COLONIA,NIQUEL,,,,"66210","19",NUEVO LE,"019",San Pedro Garza Garcra,"0001",San Pedro Garza Garcra,"0312","019",,,,Fijo,25.68455305,-100.41640153,2019-11
"2990087",DULCERIA SILVA,,"461160",Comercio al por menor de dulces y materias primas para reposterna,0 a 5 personas,CALLE,GRAFITO,CALLE,ALUMINIO,CALLE,FIERRO,CALLE,NAQUEL,"0",SN,,,"0",,COLONIA,NIQUEL,,,,"66210","19",NUEVO LE,"019",San Pedro Garza Garcra,"0001",San Pedro Garza Garcra,"0312","019",,,,Fijo,25.68455425,-100.41641203,2014-12
"3019233",DULCERIA TEMO,,"461160",Comercio al por menor de dulces y materias primas para reposterna,0 a 5 personas,CALLE,MERCURIO,CALLE,ORO,CALLE,ALUMINIO,CALLE,MANGANESO,"301",,,,,,COLONIA,UNIDAD HAB SAN PEDRO,,,,"66210","19",NUEVO LEAN,"019",San Pedro Garza Garc,"0001",San Pedro Garza Garc,"0026","051","8183159091",,,Fijo,25.6786484,-100.41710676,2010-07
"3017904",DULCERIA TEACHER,,"461160",Comercio al por menor de dulces y materias primas para reposterna,0 a 5 personas,CALLE,20 DE NOVIEMBRE,CALLE,MERCURIO,CALLE,MANGANESO,CALLE,FIERRO,"203",,,,,,COLONIA,UNIDAD HAB SAN PEDRO,,,,"66210","19",NUEVO LEAN,"019",San Pedro Garza Garc,"0001",San Pedro Garza Garc,"0026","050","8183157574",DULCERIATEACHERS@YAHOO.COM.MX,,Fijo,25.67950676,-100.41795399,2010-07
"3019200",DULCERIA URANIO,,"461160",Comercio al por menor de dulces y materias primas para reposterpa,0 a 5 personas,CALLE,URANIO,CALLE,COBALTO,CALLE,PLOMO,CALLE,PLATA,"201",,,,"0",,CIUDAD,SAN PEDRO 400,,,,"66210","19",NUEVO LEON,"019",San Pedro Garza Garcra,"0001",San Pedro Garza Garcra,"0011","023","8183157774",,,Fijo,25.68186153,-100.41477576,2010-07
"3019305",CARNICERIA TREVICO,,"461121",Comercio al por menor de carnes rojas,0 a 5 personas,AVENIDA,GENERAL EMILIANO ZAPATA,CALLE,ANTONIO I. VILLARREAL,CALLE,NICEFORO ZAMBRANO,CALLE,GENERAL  LVARO OBREGLN,"318",,,,,,COLONIA,REVOLUCION,,,,"66219","19",NUEVO LEON,"019",San Pedro Garza GarcLa,"0001",San Pedro Garza GarcLa,"0327","021","8183156182",,,Fijo,25.68200331,-100.40755865,2010-07
"3019284",DEPOSITO M,,"461212",Comercio al por menor de cerveza,0 a 5 personas,AVENIDA,GENERAL EMILIANO ZAPATA,CALLE,RICARDO FLORES MAGON,CALLE,ANTONIO I. VILLARREAL,CALLE,GENERAL ILVARO OBREGLN,"204",B,,,,,COLONIA,UNIDAD REVOLUCION,,,,"66210","19",NUEVO LEEN,"019",San Pedro Garza GarcLa,"0001",San Pedro Garza GarcLa,"0327","055",,,,Fijo,25.68180259,-100.40894421,2010-07
"3019157",DEPOSITO RIVERA,,"461212",Comercio al por menor de cerveza,0 a 5 personas,CALLE,ROQUE GONZALEZ GARZA,CALLE,GENERAL NLVARO OBREGON,CALLE,ANTONIO DIAZ SOTO,CALLE,GENERAL PABLO GONZELEZ GARZA,"130",,,,,,COLONIA,REVOLUCION,,,,"66219","19",NUEVO LEON,"019",San Pedro Garza GarcEa,"0001",San Pedro Garza GarcEa,"0327","014",,,,Fijo,25.68116586,-100.41091478,2010-07
"3018878",COMERCIO AL POR MENOR EN FERRETERtAS Y TLAPALER AS,,"467111",Comercio al por menor en ferretertas y tlapaler as,0 a 5 personas,CALLE,CROMO,CALLE,ALABASTRO,CALLE,CRISTAL,CALLE,FIERRO,"603",,,,"0",,COLONIA,ALABASTRO,,,,"66210","19",NUEVO LEON,"019",San Pedro Garza Garcra,"0001",San Pedro Garza Garcra,"0312","002","8120407420",RODRIGUEZCROMO@HOTMIL.CO,,Fijo,25.6869386,-100.416865,2010-07
"2992702",BAZAR DOBA MARY,,"466410",Comercio al por menor de artnculos usados,0 a 5 personas,CALLE,PLOMO,CALLE,PLATA,CALLE,CARBONO,AVENIDA,MANUEL J. CLOUTHIER,,SN,,,,,COLONIA,SAN PEDRO 400,,,,"66210","19",NUEVO LEON,"019",San Pedro Garza Garcra,"0001",San Pedro Garza Garcra,"0026","012","8183159633",,,Fijo,25.68175763,-100.41433621,2014-12
"3017901",DEPOSITO TOKIS,,"461212",Comercio al por menor de cerveza,0 a 5 personas,CALLE,20 DE NOVIEMBRE,CALLE,MERCURIO,CALLE,MANGANESO,CALLE,FIERRO,"215",,,,,,COLONIA,UNIDAD HAB SAN PEDRO,,,,"66210","19",NUEVO LEAN,"019",San Pedro Garza Garc,"0001",San Pedro Garza Garc,"0026","050","8183156460",,,Fijo,25.67899863,-100.41794025,2010-07
"3019231",DEPOSITO TONYS,,"461212",Comercio al por menor de cerveza,0 a 5 personas,CALLE,PLATINO,CALLE,MANGANESO,CALLE,MERCURIO,CALLE,ALUMINIO,"204",,,,,,COLONIA,UNIDAD HAB SAN PEDRO,,,,"66210","19",NUEVO LEAN,"019",San Pedro Garza Garc,"0001",San Pedro Garza Garc,"0026","014","8183156460",,,Fijo,25.67930042,-100.41627951,2010-07
"3018864",DEPOSITO EL HUASTECO,,"461212",Comercio al por menor de cerveza,0 a 5 personas,CALLE,AZUFRE,CALLE,ALUMINIO,CALLE,PROLONGACION RIOLITA,CALLE,TALCO,"201",,,,"0",,COLONIA,FIJO,,,,"66230","19",NUEVO LECN,"019",San Pedro Garza Garc,"0001",San Pedro Garza Garc,"0312","012","81159076754",,,Fijo,25.68616318,-100.41585598,2010-07
"7564226",FARMACIA,,"464111",Farmacias sin miniscper,0 a 5 personas,CALLE,ANTONIO I. VILLARREAL,CALLE,ANTONIO I VILLARREAL,CALLE,EMILIANO ZAPATA,ANDADOR,FRANCISCO CPRDENAS,,SN,,,,,COLONIA,VISTA MONTAPA,,,,"66210","19",NUEVO LENN,"019",San Pedro Garza Garc,"0001",San Pedro Garza Garc,"0327","038",,,,Fijo,25.68220161,-100.40758052,2019-11
"3019265",ESTANQUILLO,,"461110","Comercio al por menor en tiendas de abarrotes, ultramarinos y misceleneas",0 a 5 personas,CALLE,PLATINO,CALLE,COBALTO,CALLE,PLOMO,CALLE,ALUMINIO,"202",,,,,,COLONIA,SAN PEDRO 400,,,,"66210","19",NUEVO LEON,"019",San Pedro Garza Garcra,"0001",San Pedro Garza Garcra,"0026","011","8113523898",,,Fijo,25.68213409,-100.41596256,2010-07
"3019152",ESTANQUILLO,,"461110","Comercio al por menor en tiendas de abarrotes, ultramarinos y misceleneas",0 a 5 personas,CALLE,PLAN DE AYALA,AVENIDA,GENERAL EMILIANO ZAPATA,CALLE,AQUILES SERDAN,CALLE,PLAN DE GUADALUPE,"204",B,,,,,COLONIA,REVOLUCION IV SECTOR,,,,"66219","19",NUEVO LEON,"019",San Pedro Garza Garc,"0001",San Pedro Garza Garc,"0327","009",,,,Fijo,25.68223683,-100.40852537,2010-07
"3019145",ESTANQUILLO,,"461110","Comercio al por menor en tiendas de abarrotes, ultramarinos y misceleneas",0 a 5 personas,CALLE,GENERAL PABLO GONZALEZ GARZA,AVENIDA,GENERAL EMILIANO ZAPATA,CALLE,AQUILES SERDAN,CALLE,ROQUE GONZRLEZ GARZA,"205",,,,,,COLONIA,REVOLUCION,,,,"66219","19",NUEVO LEON,"019",San Pedro Garza Garc,"0001",San Pedro Garza Garc,"0327","005","8183155477",,,Fijo,25.68240752,-100.41101074,2010-07
"2990183",FLORERIA ELISA,,"466312",Comercio al por menor de plantas y flores naturales,0 a 5 personas,CALLE,BENJAMIN HILL,CALLE,MANUEL J. CLOUTHIER,CALLE,EULALIO GUZMAN,CALLE,FALIX I.,"127",,,,,,COLONIA,EL OBISPO,,,,"66214","19",NUEVO LEON,"019",San Pedro Garza Garcra,"0001",San Pedro Garza Garcra,"0331","046","8183157900",FLORERIAELISA@TELMEXMAIL.COM,,Fijo,25.67857994,-100.40056536,2014-12
"7564160",FLORERIA ARTE Y DISESO,,"466312",Comercio al por menor de plantas y flores naturales,0 a 5 personas,CALLE,ANTONIO I. VILLARREAL,CALLE,ADOLFO DE LA HUERTA,CALLE,GENERAL ELVARO OBREGON,CALLE,ADOLFO DE LA HUERTA,"147",,,,,,COLONIA,VISTA MONTAAA,,,,"66216","19",NUEVO LENN,"019",San Pedro Garza GarcOa,"0001",San Pedro Garza GarcOa,"0327","022",,,,Fijo,25.68159134,-100.40752516,2019-11
"3019160",HELADOS LA TAPATIA,,"461170",Comercio al por menor de paletas de hielo y helados,0 a 5 personas,CALLE,GENERAL FELIPE ANGELES,CALLE,GENERAL FLVARO OBREGON,AVENIDA,GENERAL EMILIANO ZAPATA,AVENIDA,DIVISIAN DEL NORTE,,SN,,,,,COLONIA,REVOLUCION,,,,"66210","19",NUEVO LEON,"019",San Pedro Garza GarcAa,"0001",San Pedro Garza GarcAa,"0327","013","8183383061",,,Fijo,25.68171066,-100.40997792,2010-07
"3017896",FARMACIA MERALK,,"464111",Farmacias sin miniscper,0 a 5 personas,AVENIDA,LAS TORRES,CALLE,ORO,CALLE,FIERRO,CALLE,MANGANESO,,SN,EDIFICIO SIN NOMBRE,PISO 1,,,COLONIA,UNIDAD HABITACIONAL SAN PEDRO,,,,"66210","19",NUEVO LEAN,"019",San Pedro Garza GarcSa,"0001",San Pedro Garza GarcSa,"0026","042",,FARMACIA.MERALK@GIMAIL.COM,,Fijo,25.68021577,-100.41704625,2010-07
"3019358",FERRETERIA CEDILLO,,"467111",Comercio al por menor en ferretertas y tlapaler as,0 a 5 personas,CALLE,MANUEL J CLOUTHIER,CALLE,LANDON,CALLE,ALEJANDRO VI,CALLE,EULALIO GUZM,"913",,,,,,COLONIA,VILLAS DEL OBISPO,,,,"66214","19",NUEVO LEEN,"019",San Pedro Garza Garcra,"0001",San Pedro Garza Garcra,"0331","049","8111336119",,,Fijo,25.67742769,-100.3993822,2010-07
"3019338",FRUTERIA LA LIMONADA,,"461130",Comercio al por menor de frutas y verduras frescas,0 a 5 personas,CALLE,PEDRO M. PERALES,CALLE,GENERAL BERNARDO REYES,AVENIDA,GENERAL EMILIANO ZAPATA,AVENIDA,MANUEL J. CLOUTHIER,,SN,,,,,COLONIA,EL OBISPO,,,,"66214","19",NUEVO LEON,"019",San Pedro Garza GarcAa,"0001",San Pedro Garza GarcAa,"0331","019",,,,Fijo,25.67922146,-100.40427513,2010-07
"7563986",FRUTERIA LA ECONOMICA,,"461130",Comercio al por menor de frutas y verduras frescas,0 a 5 personas,CALLE,GRAFITO,CALLE,FIERRO,CALLE,CROMO,CALLE,COBALTO,"334",A,,,,,COLONIA,SAN PEDRO 400,,,,"66210","19",NUEVO LEON,"019",San Pedro Garza Garcra,"0001",San Pedro Garza Garcra,"0026","030",,,,Fijo,25.68456911,-100.4171664,2019-11
"7564173",EXPENDIO DE PAN,,"461190",Comercio al por menor de otros alimentos,0 a 5 personas,CALLE,NICEFORO ZAMBRANO,CALLE,GENERAL  LVARO OBREGON,AVENIDA,GENERAL EMILIANO ZAPATA,CALLE,ANTONIO I. VILLARREAL,,SN,,,,,COLONIA,REVOLUCION,,,,"66219","19",NUEVO LEON,"019",San Pedro Garza GarcLa,"0001",San Pedro Garza GarcLa,"0327","021","8110794128",,,Fijo,25.68189791,-100.4068649,2019-11
"3019236",FERRETERIA LAS TORRES,"UNION FLORES FERRETERA, SA DE CV","467111",Comercio al por menor en ferretersas y tlapalermas,0 a 5 personas,AVENIDA,LAS TORRES,CALLE,ORO,CALLE,ALUMINIO,CALLE,MANGANESO,,SN,,,,,COLONIA,UNIDAD HAB SAN PEDRO,,,,"66210","19",NUEVO LEAN,"019",San Pedro Garza Garc,"0001",San Pedro Garza Garc,"0026","043","8183157317",UNIONFLORESFERRETERA@GIMAIL.COM,,Fijo,25.68018536,-100.41687471,2010-07
"3019281",FERRETERIA RUBE,,"467111",Comercio al por menor en ferreterias y tlapaler as,0 a 5 personas,CALLE,ANTONIO I. VILLARREAL,CALLE,LUCIO BLANCO,CALLE,GENERAL ALVARO OBREGON,CALLE,LUCIO BLANCO,"154",,,,,,COLONIA,REVOLUCION 2 SECTOR,,,,"66219","19",NUEVO LEON,"019",San Pedro Garza GarcOa,"0001",San Pedro Garza GarcOa,"0327","020",,,,Fijo,25.68155265,-100.40781556,2010-07
"2990094",FERRETERIA RG,,"467111",Comercio al por menor en ferretercas y tlapaleryas,0 a 5 personas,CALLE,COBALTO,CALLE,POTASIO,CALLE,SODIO,CALLE,PLOMO,"222",,,,"0",,CIUDAD,SAN PEDRO 400,,,,"66210","19",NUEVO LEON,"019",San Pedro Garza Garcra,"0001",San Pedro Garza Garcra,"0011","022",,,,Fijo,25.68238608,-100.4119851,2014-12
"3019232",FOTOGRAFIA PAPELERIA Y MERCERIA XAVY,,"465311",Comercio al por menor de artRculos de papelersa,0 a 5 personas,CALLE,MANGANESO,CALLE,ORO,CALLE,ALUMINIO,CALLE,MERCURIO,"302",,,,,,COLONIA,UNIDAD HAB SAN PEDRO,,,,"66210","19",NUEVO LEAN,"019",San Pedro Garza Garc,"0001",San Pedro Garza Garc,"0026","051",,,,Fijo,25.679437,-100.41696384,2010-07
"9027157",FLORES Y DETALLES PIENSA EN MI,,"466312",Comercio al por menor de plantas y flores naturales,0 a 5 personas,AVENIDA,GENERAL EMILIANO ZAPATA,ANDADOR,ANACLETO GUERRERO,CALLE,NICEFORO ZAMBRANO,CALLE,RAMIRO TAMEZ,"101",A,,,,,COLONIA,VISTA MONTAZA,,,,"66216","19",NUEVO LENN,"019",San Pedro Garza GarcAa,"0001",San Pedro Garza GarcAa,"0327","046",,,,Fijo,25.6822498,-100.40681281,2019-11
"9288442",KALTEX,KALTEX SA DE CV,"465919",Comercio al por menor de otros art culos de uso personal,0 a 5 personas,BOULEVARD,LICENCIADO GUSTAVO DIAZ ORDAZ,CALLE,MARIA CANTU TREVIOO,OTRO (ESPECIFIQUE),SIN REFERENCIA,CALLE,PALMA,,SN,,,,,COLONIA,LA LEONA,,,,"66210","19",NUEVO LE,"019",San Pedro Garza GarcIa,"0001",San Pedro Garza GarcIa,"0577","002",,,,Fijo,25.67482954,-100.41153952,2020-11
"3018872",FARMACIAS SIMILARES NUEVA VIDA,,"464111",Farmacias sin minis per,0 a 5 personas,CALLE,FIERRO,CALLE,COBALTO,CALLE,GRAFITO,CALLE,CROMO,"302",,,,,,COLONIA,SAN PEDRO 400,,,,"66210","19",NUEVO LEON,"019",San Pedro Garza Garcpa,"0001",San Pedro Garza Garcpa,"0026","030","8183159824",,,Fijo,25.68398485,-100.41700576,2010-07
"3019275",FARMACIAS SIMILARES,,"464111",Farmacias sin minis,0 a 5 personas,CALLE,ALUMINIO,CALLE,COBALTO,CALLE,GRAFITO,CALLE,ORO,"302",,,,,,COLONIA,SAN PEDRO 400,,,,"66210","19",NUEVO LEON,"019",San Pedro Garza Garcpa,"0001",San Pedro Garza Garcpa,"0026","022",,,,Fijo,25.68335159,-100.41623985,2010-07
"3019280",HIERBERIA,,"465919",Comercio al por menor de otros art culos de uso personal,0 a 5 personas,CALLE,FIERRO,CALLE,COBALTO,CALLE,GRAFITO,CALLE,ORO,,SN,,,,,COLONIA,SAN PEDRO 400,,,,"66210","19",NUEVO LEON,"019",San Pedro Garza Garcra,"0001",San Pedro Garza Garcra,"0026","021","8116454738",,,Fijo,25.68437553,-100.41685046,2010-07
"7564043",ESTANQUILLO SIN NOMBRE,,"461110","Comercio al por menor en tiendas de abarrotes, ultramarinos y miscelineas",0 a 5 personas,CALLE,COBRE,CALLE,PLOMO,CALLE,COBALTO,CALLE,ZINC,"0",SN,,,"0",,COLONIA,SAN PEDRO 400,,,,"66210","19",NUEVO LEON,"019",San Pedro Garza Garcra,"0001",San Pedro Garza Garcra,"0011","014",,,,Fijo,25.68235474,-100.4131683,2019-11
"3019308",FERRETERIA 44-4,,"467111",Comercio al por menor en ferreterSas y tlapaler as,0 a 5 personas,CALLE,NICEFORO ZAMBRANO,CALLE,GENERAL  LVARO OBREGON,AVENIDA,GENERAL EMILIANO ZAPATA,CALLE,ANTONIO I. VILLARREAL,,SN,,,,,COLONIA,VISTA MONTAVA,,,,"66219","19",NUEVO LENN,"019",San Pedro Garza GarcLa,"0001",San Pedro Garza GarcLa,"0327","021",,,,Fijo,25.68199028,-100.40683322,2010-07
"2992794",ESTANQUILLO ZENON,,"461110","Comercio al por menor en tiendas de abarrotes, ultramarinos y miscelineas",0 a 5 personas,PRIVADA,LICENCIADO VERDAD,AVENIDA,IGNACIO MORONES PRIETO,AVENIDA,JOSE MARIANO JIMENEZ,AVENIDA,IGNACIO MORONES PRIETO,"873",,,,,,COLONIA,LUCIO BLANCO,,,,"66238","19",NUEVO LEAN,"019",San Pedro Garza GarcTa,"0001",San Pedro Garza GarcTa,"0577","025","8183366653",,,Fijo,25.6656158,-100.41164599,2014-12
"3019197",FERRETERIA BARZA,,"467111",Comercio al por menor en ferretertas y tlapaler as,0 a 5 personas,CALLE,PLATA,CALLE,GRAFITO,CALLE,COBALTO,CALLE,URANIO,"302",,,,"0",,COLONIA,SANPEDRO 400,,,,"66210","19",NUEVO LE N,"019",San Pedro Garza Garcra,"0001",San Pedro Garza Garcra,"0011","024","8183157338",,,Fijo,25.68321324,-100.41444096,2010-07
"8279458",FRUTERIA SIN NOMBRE,,"461130",Comercio al por menor de frutas y verduras frescas,0 a 5 personas,AVENIDA,IGNACIO MORONES PRIETO,AVENIDA,JOSE MARIANO JIMENEZ,AVENIDA,JOSE VASCONCELOS,AVENIDA,JOSN VASCONCELOS,"641",,,,,,COLONIA,LUCIO BLANCO,,,,"66238","19",NUEVO LEAN,"019",San Pedro Garza Garc,"0001",San Pedro Garza Garc,"0577","025","8121460183",,,Fijo,25.66639229,-100.40999997,2019-11
"7563379",HELADERIA SIN NOMBRE,,"461170",Comercio al por menor de paletas de hielo y helados,0 a 5 personas,AVENIDA,MANUEL J. CLOUTHIER,CALLE,COBRE,CALLE,ZINC,CALLE,PLOMO,,SN,,,,,COLONIA,SAN PDRO 400,,,,"66210","19",NUEVO LE N,"019",San Pedro Garza Garcra,"0001",San Pedro Garza Garcra,"0026","031",,,,Fijo,25.68023817,-100.41336267,2019-11
"3019319",FRUTERIA SIN NOMBRE,,"461130",Comercio al por menor de frutas y verduras frescas,0 a 5 personas,CALLE,FRANCISCO I. MADERO,CALLE,SEBASTIAN LERDO DE TEJADA,CALLE,HERMANOS SERDAN,CALLE,BELISARIO DOMANGUEZ,"409",D,,,,,COLONIA,EL OBISPO,,,,"66210","19",NUEVO LEON,"019",San Pedro Garza GarcEa,"0001",San Pedro Garza GarcEa,"0331","006","8183156272",,,Fijo,25.68106295,-100.40386474,2010-07
"7648377",ESTANQUILLO SIN NOMBRE,,"461110","Comercio al por menor en tiendas de abarrotes, ultramarinos y misceleneas",0 a 5 personas,CALLE,PLATA,AVENIDA,MANUEL J. CLOUTHIER,CALLE,PLOMO,CALLE,URANIO,"106",,,,,,COLONIA,SAN PEDRO 400,,,,"66210","19",NUEVO LEON,"019",San Pedro Garza Garcra,"0001",San Pedro Garza Garcra,"0026","002",,,,Fijo,25.68075806,-100.41441919,2019-11
"8633440",FRUTERIA AM,,"461130",Comercio al por menor de frutas y verduras frescas,0 a 5 personas,CALLE,FRANCISCO I. MADERO,CALLE,ANDADOR CORREGIDORA,CALLE,SEBASTIAN LERDO DE TEJADA,CALLE,PANFILO N JERA,"608",D,,,,,COLONIA,EL OBISPO,,,,"66210","19",NUEVO LEON,"019",San Pedro Garza GarcEa,"0001",San Pedro Garza GarcEa,"0331","009",,,,Fijo,25.68094626,-100.4034557,2019-11
"3019205",FRUTERIA AGUILA LEAL,,"461130",Comercio al por menor de frutas y verduras frescas,0 a 5 personas,CALLE,COBALTO,CALLE,ZINC,CALLE,CARBONO,CALLE,PLOMO,"0",SN,,,"0",,COLONIA,SAN PEDRO 400,,,,"66210","19",NUEVO LEON,"019",San Pedro Garza Garcra,"0001",San Pedro Garza Garcra,"0011","015","8183083901",MARGARITASLG@GMAIL.COM,,Fijo,25.68305364,-100.41395165,2010-07
"3018874",FARMACIA DE DIOS,,"464111",Farmacias sin minis,0 a 5 personas,CALLE,CROMO,CALLE,COBALTO,CALLE,GRAFITO,CALLE,FIERRO,,SN,,,,,COLONIA,SAN PEDRO 400,,,,"66210","19",NUEVO LEON,"019",San Pedro Garza Garcpa,"0001",San Pedro Garza Garcpa,"0026","030","8183156229",,,Fijo,25.68377171,-100.41735026,2010-07
"8830338",FANOMA,,"467111",Comercio al por menor en ferreterias y tlapalercas,0 a 5 personas,CALLE,MAGNESIO,CALLE,MERCURIO,AVENIDA,LAS TORRES,CALLE,TITANIO,,SN,,,,,COLONIA,TRABAJADORES,,,,"66210","19",NUEVO LEON,"019",San Pedro Garza Garcra,"0001",San Pedro Garza Garcra,"0026","045",,,,Fijo,25.6789533,-100.41579867,2019-11
"3019310",MINI SUPER GARCIA,,"462112",Comercio al por menor en minisupers,0 a 5 personas,CALLE,GENERAL BERNARDO REYES,CALLE,LICENCIADO ADOLFO RUIZ CORTINES,CALLE,LICENCIADO MIGUEL ALEMAN VALDES,CALLE,ADOLFO DE LA HUERTA,,SN,,,,,COLONIA,VISTA MONTAAA,,,,"66210","19",NUEVO LENN,"019",San Pedro Garza GarcEa,"0001",San Pedro Garza GarcEa,"0327","026","8115004724",,,Fijo,25.68125022,-100.40647584,2010-07
"7563990",MINI SUPER BLANQUITA,,"462112",Comercio al por menor en minisupers,0 a 5 personas,CALLE,PLATINO,CALLE,TUNGSTENO,CALLE,OSMIO,CALLE,TUNGSTENO,"618",,,,"0",,COLONIA,SAN PEDRO 400,,,,"67260","19",NUEVO LEON,"019",San Pedro Garza Garcra,"0001",San Pedro Garza Garcra,"0011","045",,,,Fijo,25.68690877,-100.41072829,2019-11
"3019225",MINI SUPER BAGU,,"462112",Comercio al por menor en minisupers,0 a 5 personas,CALLE,MERCURIO,CALLE,ZINC,CALLE,CARBONO,AVENIDA,LAS TORRES,"805",,,,,,COLONIA,UNIDAD HABITACIONAL SAN PEDRO,,,,"66210","19",NUEVO LEAN,"019",San Pedro Garza GarcSa,"0001",San Pedro Garza GarcSa,"0026","013","8180401703",,,Fijo,25.67913361,-100.41390501,2010-07
"3019240",PALETERIA Y NEVERIA LA MICHOACANA,,"461170",Comercio al por menor de paletas de hielo y helados,0 a 5 personas,AVENIDA,MANUEL J. CLOUTHIER,CALLE,PLATA,CALLE,CARBONO,CALLE,PLOMO,"707",,,,,,COLONIA,SAN PEDRO 400,,,,"66210","19",NUEVO LEON,"019",San Pedro Garza Garcra,"0001",San Pedro Garza Garcra,"0026","012",,,,Fijo,25.6803703,-100.41406134,2010-07
"7648372",MINI SUPER ADRI,,"461110","Comercio al por menor en tiendas de abarrotes, ultramarinos y misceleneas",0 a 5 personas,CALLE,FRANCISCO I. MADERO,CALLE,ANDADOR CORREGIDORA,CALLE,SEBASTIAN LERDO DE TEJADA,CALLE,PANFILO N JERA,"610",A,,,,,COLONIA,EL OBISPO,,,,"66210","19",NUEVO LEON,"019",San Pedro Garza GarcEa,"0001",San Pedro Garza GarcEa,"0331","009",,,,Fijo,25.68091905,-100.40333787,2019-11
"3019195",MINI SUPER ALDAPE,MINI SUPER ALDAPE SA DE CV,"462112",Comercio al por menor en minisupers,6 a 10 personas,CALLE,CARBONO,CALLE,COBALTO,CALLE,GRAFITO,CALLE,ZINC,"337",,,,"0",,COLONIA,SAN PEDRO 400,,,,"66210","19",NUEVO LEON,"019",San Pedro Garza Garcra,"0001",San Pedro Garza Garcra,"0011","004","8183157001",,,Fijo,25.68443551,-100.41397347,2010-07
"8505025",NUTRICION HERBALIFE,,"464113","Comercio al por menor de productos naturistas, medicamentos homeop ticos y de complementos alimenticios",0 a 5 personas,CALLE,ORO,CALLE,PLOMO,AVENIDA,MANUEL J. CLOUTHIER,CALLE,FIERRO,"106",B,,,,,COLONIA,SAN PEDRO 400,,,,"66210","19",NUEVO LEON,"019",San Pedro Garza Garcra,"0001",San Pedro Garza Garcra,"0026","019","8115829263",,,Fijo,25.6811865,-100.4169324,2019-11
"8688706",MI TIENDITA,MI TIENDITA,"461110","Comercio al por menor en tiendas de abarrotes, ultramarinos y miscelineas",0 a 5 personas,CALLE,FIERRO,CALLE,ALABASTRO,CALLE,GRANITO,CALLE,BASALTO,"627",,,,"0",,COLONIA,COLONIA,,,,"66210","19",NUEVO LEON,"019",San Pedro Garza Garcra,"0001",San Pedro Garza Garcra,"0312","003",,,,Fijo,25.68773308,-100.41626903,2019-11
"6858177",LLANTRAL,LLANTRAL SA DE CV,"468213","Comercio al por menor de llantas y ctmaras para automaviles, camionetas y camiones",11 a 30 personas,CALLE,LICENCIADO ADOLFO RUIZ CORTINES,CALLE,ADOLFO DE LA HUERTA,CALLE,GENERAL BERNARDO REYES,CALLE,ARTURO B. DE LA GARZA,"123",,,,,,COLONIA,VISTA NONTAEA,,,,"66216","19",NUEVO LENN,"019",San Pedro Garza GarcAa,"0001",San Pedro Garza GarcAa,"0327","027",,CONTABILIDAD@LLANTRAL.COM,,Fijo,25.68046577,-100.40643192,2019-04
"6371445",OXXO SUC 50DOZDIAZ ORDAZ MTY,CADENA COMERCIAL OXXO SA DE CV,"462112",Comercio al por menor en minisupers,6 a 10 personas,BOULEVARD,Licenciado Gustavo Draz Ordaz,CALLE,Corregidora,CALLE,NINGUNO,CALLE,Lucio Blanco,"0",KM 335,,,"0",,COLONIA,LA LEONA,,,,"66210","19",NUEVO LE,"019",San Pedro Garza Garcra,"0001",San Pedro Garza Garcra,"0577","003",,ATENCIONCLIENTES@OXXO.COM,WWW.OXXO.COM,Fijo,25.67446552,-100.40424527,2010-07
"2990096",MOLINO NIXTAMAL,,"462112",Comercio al por menor en minisupers,0 a 5 personas,CALLE,COBALTO,CALLE,URANIO,CALLE,PLATA,CALLE,PLOMO,"235",,,,"0",,CIUDAD,SAN PEDRO 400,,,,"66210","19",NUEVO LEON,"019",San Pedro Garza Garcra,"0001",San Pedro Garza Garcra,"0011","023",,,,Fijo,25.68307078,-100.41475355,2014-12
"3019198",MATERIALES MACIAS,,"467111",Comercio al por menor en ferretersas y tlapaleraas,6 a 10 personas,CALLE,URANIO,CALLE,GRAFITO,CALLE,COBALTO,CALLE,PLATA,"307",,,,"0",,COLONIA,SANPEDRO 400,,,,"66210","19",NUEVO LE N,"019",San Pedro Garza Garcra,"0001",San Pedro Garza Garcra,"0011","024","8183155356",JJESUSMACIAS@HOTMAIL.COM,,Fijo,25.68337062,-100.41480514,2010-07
"9238255",NL SIX 4 NIQUEL,CONTROLADORA DE NEGOCIOS COMERCIALES SA DE CV,"461212",Comercio al por menor de cerveza,0 a 5 personas,CALLE,Aluminio,CALLE,NAquel,CALLE,Grafito,CALLE,Fierro,"220",,,,"0",,COLONIA,SAN PEDRO 400,,,,"66210","19",NUEVO LEON,"019",San Pedro Garza Garcra,"0001",San Pedro Garza Garcra,"0312","019",,,,Fijo,25.68483684,-100.41604199,2020-04
"7648375",MINI SUPER LA ESQUINITA,,"462112",Comercio al por menor en minisupers,0 a 5 personas,CALLE,MANUEL GONZALEZ,CALLE,MANUEL RIVERA ANAYA,CALLE,FELIX I.,CALLE,EULALIO GUZMAN,,SN,,,,,COLONIA,VILLAS DEL OBISPO,,,,"66210","19",NUEVO LEEN,"019",San Pedro Garza Garcra,"0001",San Pedro Garza Garcra,"0331","040",,,,Fijo,25.67902377,-100.40006787,2019-11
"2990117",MINI SUPER LA ABEJITA,,"462112",Comercio al por menor en minisupers,0 a 5 personas,AVENIDA,GENERAL EMILIANO ZAPATA,CALLE,ANTONIO I. VILLARREAL,CALLE,NICEFORO ZAMBRANO,CALLE,GENERAL  LVARO OBREGLN,"324",,,,,,COLONIA,REVOLUCION,,,,"66219","19",NUEVO LEON,"019",San Pedro Garza GarcLa,"0001",San Pedro Garza GarcLa,"0327","021","8183158467",,,Fijo,25.68202286,-100.40740488,2014-12
"9238258",NL SIX 4 BENJAMIN HILL,CONTROLADORA DE NEGOCIOS COMERCIALES SA DE CV,"461212",Comercio al por menor de cerveza,0 a 5 personas,CALLE,Manuel J. Clouthier,CALLE,Andador Corregidora,CALLE,Benjamrn Hill,CALLE,Sebastinn Lerdo de Tejada,"701",,,,"0",,COLONIA,VILLAS DEL OBISPO,,,,"66214","19",NUEVO LEEN,"019",San Pedro Garza Garcea,"0001",San Pedro Garza Garcea,"0331","045",,,,Fijo,25.67792797,-100.40197639,2020-04
"2992703",PAPELERIA 22,,"465311",Comercio al por menor de articulos de papelerra,0 a 5 personas,AVENIDA,MANUEL J. CLOUTHIER,CALLE,PLATA,CALLE,CARBONO,CALLE,PLOMO,"705",,,,,,COLONIA,SAN PEDRO 400,,,,"66210","19",NUEVO LEON,"019",San Pedro Garza Garcra,"0001",San Pedro Garza Garcra,"0026","012",,,,Fijo,25.68039459,-100.41418416,2010-07
"3019133",MERCERIA,,"465912",Comercio al por menor de regalos,0 a 5 personas,CALLE,ANTONIO DIAZ SOTO,AVENIDA,DIVISION DEL NORTE,CALLE,RICARDO FLORES MAGON,AVENIDA,MANUEL J. CLOUTHIER,"152",,,,,,COLONIA,REVOLUCION PRIMER SECTOR,,,,"66219","19",NUEVO LEON,"019",San Pedro Garza GarcCa,"0001",San Pedro Garza GarcCa,"0327","031","8183155031",,,Fijo,25.68002186,-100.41052369,2010-07
"6850780",OXXO SUC 50P23 NEORIS MTY,CADENA COMERCIAL OXXO SA DE CV,"462112",Comercio al por menor en minisupers,6 a 10 personas,BOULEVARD,LICENCIADO GUSTAVO DrAZ ORDAZ,CALLE,ORO,CALLE,ZINC,CALLE,MERCURIO,"0",SN,,,,,COLONIA,SAN PEDRO UNIDAD,,,,"66215","19",NUEVO LEON,"019",San Pedro Garza Garcra,"0001",San Pedro Garza Garcra,"0026","025",,ATENCIONCLIENTES@OXXO.COM,WWW.OXXO.COM,Fijo,25.67546763,-100.41696911,2018-11
"3018879",MINI SUPER VILLANUEVA,,"462112",Comercio al por menor en minisupers,0 a 5 personas,CALLE,FIERRO,CALLE,CRISTAL,CALLE,MARGA,CALLE,CROMO,"0",SN,,,"0",,COLONIA,ALABASTRO,,,,"66210","19",NUEVO LEON,"019",San Pedro Garza Garcra,"0001",San Pedro Garza Garcra,"0312","007",,,,Fijo,25.68678738,-100.41656749,2010-07
"7564231",MINI SUPER VALLES,,"462112",Comercio al por menor en minisupers,0 a 5 personas,CALLE,ANTONIO I. VILLARREAL,CALLE,ANTONIO DIAZ SOTO,AVENIDA,MANUEL J. CLOUTHIER,CALLE,ANTONIO I. VILLARREAL,,SN,,,,,COLONIA,REVOLUCION,,,,"66219","19",NUEVO LEON,"019",San Pedro Garza GarcLa,"0001",San Pedro Garza GarcLa,"0327","032",,,,Fijo,25.67935114,-100.40827807,2019-11
"2990120",MINI SUPER SAN PEDRO,,"462112",Comercio al por menor en minisupers,0 a 5 personas,CALLE,ANTONIO I. VILLARREAL,CALLE,GENERAL ILVARO OBREGON,AVENIDA,GENERAL EMILIANO ZAPATA,CALLE,GENERAL ELVARO OBREGAN,"207",,,,,,COLONIA,REVOLUCION,,,,"66219","19",NUEVO LEON,"019",San Pedro Garza GarcAa,"0001",San Pedro Garza GarcAa,"0327","021","8183158067",,,Fijo,25.68193063,-100.40774221,2014-12
"3019253",MINI SUPER SAN MARTIN,,"462112",Comercio al por menor en minisupers,0 a 5 personas,CALLE,PLAN DE GUADALUPE,CALLE,ANTONIO DIAZ SOTO,CALLE,GENERAL DLVARO OBREGON,CALLE,GENERAL DLVARO OBREGON,"102",,,,,,COLONIA,UNIDAD REVOLUCION 2 SECTOR,,,,"66219","19",NUEVO LEEN,"019",San Pedro Garza GarcSa,"0001",San Pedro Garza GarcSa,"0327","017","8183157594",,,Fijo,25.6798843,-100.40898341,2010-07
"9238256",NL SIX TORO,CONTROLADORA DE NEGOCIOS COMERCIALES SA DE CV,"461212",Comercio al por menor de cerveza,0 a 5 personas,AVENIDA,Las Torres,CALLE,Fierro,CALLE,Oro,CALLE,Manganeso,"208",,,,"0",,UNIDAD HABITACIONAL,UNIDAD HABITACIONAL SAN PEDRO,,,,"66200","19",NUEVO LEAN,"019",San Pedro Garza GarcSa,"0001",San Pedro Garza GarcSa,"0026","042",,,,Fijo,25.68021195,-100.41702693,2020-04
"3019349",MINI SUPER NUzEZ,,"462112",Comercio al por menor en minisupers,0 a 5 personas,CALLE,JUAN SARABIA,CALLE,FELIX I.,CALLE,LANDON,CALLE,MANUEL GONZALEZ,,SN,,,,,COLONIA,VILLAS DEL OBISPO,,,,"66210","19",NUEVO LEEN,"019",San Pedro Garza Garcra,"0001",San Pedro Garza Garcra,"0331","038",,,,Fijo,25.67940786,-100.39983869,2010-07
"3019211",MINI SUPER LIzAN,,"462112",Comercio al por menor en minisupers,0 a 5 personas,CALLE,POTASIO,CALLE,COBALTO,CALLE,PLOMO,CALLE,SODIO,"0",SN,,,"0",,CIUDAD,SAN PEDRO 400,,,,"66210","19",NUEVO LEON,"019",San Pedro Garza Garcra,"0001",San Pedro Garza Garcra,"0011","022","8183158339",,,Fijo,25.68192577,-100.41192625,2010-07
"3019318",MINI SUPER LORENA,,"461212",Comercio al por menor de cerveza,0 a 5 personas,CALLE,HERMANOS SERDAN,CALLE,BELISARIO DOMINGUEZ,CALLE,FRANCISCO I. MADERO,CALLE,SEBASTICN LERDO DE TEJADA,"408",B,,,,,COLONIA,EL OBISPO,,,,"66210","19",NUEVO LEON,"019",San Pedro Garza GarcEa,"0001",San Pedro Garza GarcEa,"0331","006",,,,Fijo,25.6811144,-100.40380592,2010-07
"3019293",MINI SUPER LEO,,"462112",Comercio al por menor en minisupers,6 a 10 personas,AVENIDA,GENERAL EMILIANO ZAPATA,ANDADOR,FRANCISCO CARDENAS,ANDADOR,ANACLETO GUERRERO,CALLE,RAMIRO TAMEZ,,SN,,,,,COLONIA,VISTA MONTAZA,,,,"66210","19",NUEVO LENN,"019",San Pedro Garza GarcAa,"0001",San Pedro Garza GarcAa,"0327","045","8113138981",ANGEL.MINILEO77@GMAIL.COM,,Fijo,25.68220723,-100.40719656,2010-07
"9280217",OXXO,CADENA COMERCIAL OXXO SA DE CV,"462112",Comercio al por menor en minisupers,6 a 10 personas,AVENIDA,GENERAL EMILIANO ZAPATA,CALLE,GENERAL FELIPE ONGELES,AVENIDA,DIVISION DEL NORTE,AVENIDA,DIVISIAN DEL NORTE,"102",SN,,,,,COLONIA,REVOLUCION,,,,,"19",NUEVO LEON,"019",San Pedro Garza GarcEa,"0001",San Pedro Garza GarcEa,"0327","013",,,,Fijo,25.68214373,-100.41130294,2020-11
"2990175",PALETERIA ABY CLAUDIA ELIZABETH BARAJAS RODRIGUEZ,,"461170",Comercio al por menor de paletas de hielo y helados,0 a 5 personas,CALLE,CROMO,CALLE,GRAFITO,CALLE,MARGA,CALLE,FIERRO,"404",SN,,,"0",,COLONIA,PALETRIA ABY,,,,"66210","19",NUEVO LE N,"019",San Pedro Garza Garcra,"0001",San Pedro Garza Garcra,"0312","015","8115505754",,,Fijo,25.6846657,-100.41723324,2014-12
"3018856",PAPELERIA GEMELAS,,"465311",Comercio al por menor de arteculos de papelerea,0 a 5 personas,CALLE,TUNGSTENO,CALLE,CROMO,CALLE,ALABASTRO,CALLE,ALABASTRO,"718",,,,,,COLONIA,PAPELERIA SIN NOMBRE,,,,"66210","19",NUEVO LEAN,"019",San Pedro Garza Garc,"0001",San Pedro Garza Garc,"0312","001",,,,Fijo,25.68829261,-100.41627458,2010-07
"2992963",MISCEL2NEA,,"461110","Comercio al por menor en tiendas de abarrotes, ultramarinos y miscelineas",0 a 5 personas,CALLE,FERNANDO DAVILA REYES,CALLE,NINGUNO,CALLE,NINGUNO,CALLE,SIN REFERENCIA,"225",,,,,,COLONIA,LOS PINOS,,,,"66239","19",NUEVO LESN,"019",San Pedro Garza GarcSa,"0001",San Pedro Garza GarcSa,"0488","043",,,,Fijo,25.67173702,-100.39323336,2014-12
"8688822",MERCERIA Y PAPELERIA CLOUTHIER,,"465311",Comercio al por menor de artEculos de papelerVa,0 a 5 personas,AVENIDA,MANUEL J. CLOUTHIER,CALLE,LICENCIADO ADOLFO RUIZ CORTINES,CALLE,ANTONIO I. VILLARREAL,CALLE,ANTONIO D.AZ SOTO,"321",,,,,,COLONIA,VISTA MONTAZA,,,,"66216","19",NUEVO LENN,"019",San Pedro Garza GarcLa,"0001",San Pedro Garza GarcLa,"0327","033",,,,Fijo,25.67915919,-100.40798134,2019-11
"3018869",MERCERIA Y PAPELERIA EL COMETA,,"465912",Comercio al por menor de regalos,0 a 5 personas,CALLE,CROMO,CALLE,GRAFITO,CALLE,MARGA,CALLE,FIERRO,,SN,,,,,COLONIA,PALETRIA ABY,,,,"66210","19",NUEVO LE N,"019",San Pedro Garza Garcra,"0001",San Pedro Garza Garcra,"0312","015","8183157869",,,Fijo,25.68473615,-100.41722249,2010-07
"3019143",PAPELERIA ELY,,"465311",Comercio al por menor de articulos de papelerna,0 a 5 personas,CALLE,LUIS CABRERA,CALLE,GENERAL RLVARO OBREGON,CALLE,ANTONIO DIAZ SOTO,CALLE,GENERAL FELIPE TNGELES,,SN,,,,,COLONIA,REVOLUCION,,,,"66219","19",NUEVO LEON,"019",San Pedro Garza GarcEa,"0001",San Pedro Garza GarcEa,"0327","015",,,,Fijo,25.68152991,-100.41033159,2010-07
"3019326",PAPELERIA EL OBISPO,,"465311",Comercio al por menor de articulos de papelerna,0 a 5 personas,CALLE,PEDRO M. PERALES,AVENIDA,GENERAL EMILIANO ZAPATA,CALLE,SEBASTIAN LERDO DE TEJADA,CALLE,FRANCISCO I. MADERO,,SN,,,,,COLONIA,EL OBISPO,,,,"66214","19",NUEVO LEON,"019",San Pedro Garza GarcEa,"0001",San Pedro Garza GarcEa,"0331","013",,,,Fijo,25.67942933,-100.40356862,2010-07
"2990155",MISCELANEA EMMA,,"462112",Comercio al por menor en minisupers,0 a 5 personas,AVENIDA,GENERAL EMILIANO ZAPATA,CALLE,LICENCIADO JOSE BENITEZ,CALLE,PEDRO M. PERALES,CALLE,GENERAL BERNARDO REYES,"400",D,,,,,COLONIA,EL OBISPO,,,,"66214","19",NUEVO LEON,"019",San Pedro Garza GarcEa,"0001",San Pedro Garza GarcEa,"0331","012",,,,Fijo,25.68093717,-100.40502772,2014-12
"8688769",MERCERIA Y PAPELERIA SIN NOMBRE,,"465311",Comercio al por menor de artBculos de papelerea,0 a 5 personas,CALLE,BASALTO,CALLE,GRANITO,CALLE,TUNGSTENO,CALLE,RIOLITA,"610",,,,,,COLONIA,TACOS Y GORDITAS LA ESQUINA,,,,"66212","19",NUEVO LEGN,"019",San Pedro Garza GarcEa,"0001",San Pedro Garza GarcEa,"0312","004",,,,Fijo,25.68723799,-100.41590926,2019-11
"2990107",PAPELERIA DETALLES Y ENVOLTURAS,,"465311",Comercio al por menor de artRculos de papelerea,0 a 5 personas,CALLE,RODOLFO GAYTAN,CALLE,ENRIQUE RAMIREZ,CALLE,PLATINO,CALLE,BATALLONES ROJOS,"1404",B,,,"0",,COLONIA,ZONA REVOLUCION,,,,"66216","19",NUEVO LEON,"019",San Pedro Garza Garcra,"0001",San Pedro Garza Garcra,"0609","007","8119514472",DETALLES_ENVOLTURAS@HOTMAIL.COM,,Fijo,25.68490239,-100.41038614,2014-12
"7563888",LA TIENDITA DEL CALLEJON,,"461110","Comercio al por menor en tiendas de abarrotes, ultramarinos y misceleneas",0 a 5 personas,ANDADOR,NINGUNO,CALLE,LUCIO BLANCO,CALLE,GENERAL FRANCISCO VILLA,CALLEJON,NINGUNO,"366",C,,,,,COLONIA,LUCIO BLANCO 2DO SECT,,,,"66218","19",NUEVO LEAN,"019",San Pedro Garza GarcTa,"0001",San Pedro Garza GarcTa,"0577","012",,,,Fijo,25.67124387,-100.40446685,2019-11
"3019359",MERCERIA Y PAPELERIA,,"465311","Comercio al por menor de artnculos de papeler,a",0 a 5 personas,CALLE,MANUEL J CLOUTHIER,CALLE,LANDON,CALLE,ALEJANDRO VI,CALLE,EULALIO GUZM,"911",,,,,,COLONIA,VILLAS DEL OBISPO,,,,"66214","19",NUEVO LEEN,"019",San Pedro Garza Garcra,"0001",San Pedro Garza Garcra,"0331","049","8183155833",,,Fijo,25.67743425,-100.39942078,2010-07
"3019175",MINISUPER TONY,,"462112",Comercio al por menor en minisupers,0 a 5 personas,CALLE,AZUFRE,CALLE,URANIO,CALLE,ZINC,CALLE,ZINC,"801",,,,"0",,COLONIA,SAN PEDRO 400,,,,"66210","19",NUEVO LEON,"019",San Pedro Garza Garcra,"0001",San Pedro Garza Garcra,"0011","006",,,,Fijo,25.6860085,-100.41395518,2010-07
"3019282",PAPELERIA Y MERCERIA JESA,,"465311",Comercio al por menor de artAculos de papelerra,0 a 5 personas,CALLE,ANTONIO I. VILLARREAL,CALLE,LUCIO BLANCO,CALLE,GENERAL ALVARO OBREGON,CALLE,GENERAL ALVARO OBREGON,"142",,,,,,COLONIA,REVOLUCION 2 SECTOR,,,,"66219","19",NUEVO LEON,"019",San Pedro Garza GarcOa,"0001",San Pedro Garza GarcOa,"0327","020",,,,Fijo,25.68064144,-100.40791753,2010-07
"7563883",PAPELERIA Y MERCERIA EL COMETA,,"465311",Comercio al por menor de artTculos de papelerra,0 a 5 personas,CALLE,CROMO,CALLE,GRAFITO,CALLE,MARGA,CALLE,FIERRO,"0",SN,,,"0",,COLONIA,PALETRIA ABY,,,,"66210","19",NUEVO LE N,"019",San Pedro Garza Garcra,"0001",San Pedro Garza Garcra,"0312","015",,,,Fijo,25.68466945,-100.41723267,2019-11
"8830343",PAPELERIA SIN NOMBRE,,"465311",Comercio al por menor de artoculos de papelersa,0 a 5 personas,CALLE,ANTIMONIO,CALLE,GRAFITO,CALLE,AZUFRE,CALLE,COBRE,"0",SN,,,"0",,COLONIA,SAN PEDRO 400,,,,"66210","19",NUEVO LEON,"019",San Pedro Garza Garcra,"0001",San Pedro Garza Garcra,"0011","002",,,,Fijo,25.68502835,-100.41278284,2019-11
"8830342",PAPELERIA SIN NOMBRE,,"465311",Comercio al por menor de artoculos de papelersa,0 a 5 personas,CALLE,ZINC,CALLE,URANIO,CALLE,AZUFRE,CALLE,COBRE,"0",SN,,,"0",,COLONIA,SAN PEDRO 400,,,,"66210","19",NUEVO LEON,"019",San Pedro Garza Garcra,"0001",San Pedro Garza Garcra,"0011","007",,,,Fijo,25.68686094,-100.41355022,2019-11
"3019289",PAPELERIA Y MERCERIA,,"465311",Comercio al por menor de artzculos de papelersa,0 a 5 personas,CALLE,NICEFORO ZAMBRANO,CALLE,NICEFORO ZAMBRANO,CALLE,PORFIRIO GONZALEZ,ANDADOR,ANACLETO GUERRERO,"322",,,,,,COLONIA,VISTA MONTAEA,,,,"66216","19",NUEVO LENN,"019",San Pedro Garza Garcra,"0001",San Pedro Garza Garcra,"0327","040",,,,Fijo,25.68400865,-100.40619965,2010-07
"6234719",PETRO 7 SUC. 4811 CORREGIDORA Y BLVD DIAZ ORDAZ,PETROMAX SA DE CV,"468411",Comercio al por menor de gasolina y diesel,6 a 10 personas,AVENIDA,CORREGIDORA,AVENIDA,DIAZ ORDAZ,CALLE,SIN DATO,CALLE,SIN DATO,"600",,,,,,COLONIA,LUCIO BLANCO,,,,"64480","19",NUEVO LEAN,"019",San Pedro Garza Garcra,"0001",San Pedro Garza Garcra,"0577","004",,HECTOR.GOMEZ@PETRO-7.COM.MX,,Fijo,25.6739628,-100.4026692,2013-07
"7563940",PAPELERIA Y MERCERIA,,"465311",Comercio al por menor de arteculos de papeler a,0 a 5 personas,CALLE,FIERRO,CALLE,PLOMO,AVENIDA,MANUEL J. CLOUTHIER,CALLE,ORO,,SN,,,,,COLONIA,SAN PEDRO 400,,,,"66210","19",NUEVO LEON,"019",San Pedro Garza Garcra,"0001",San Pedro Garza Garcra,"0026","019",,,,Fijo,25.68207733,-100.41714823,2019-11
"3025961",PROVEEDORA DE COMBUSTIBLES S. A. DE C. V.,PROVEEDORA DE COMBUSTIBLES SA DE CV,"468411",Comercio al por menor de gasolina y diesel,11 a 30 personas,OTRO (ESPECIFIQUE),LICENCIADO GUSTAVO DrAZ ORDAZ,CALLE,MARLA CANT  TREVIOO,AVENIDA,CORREGIDORA,CALLE,LUCIO BLANCO,"335",,,,"0",,COLONIA,COLONIA LA LEONA,,,,"66230","19",NUEVO LELN,"019",San Pedro Garza Garcra,"0001",San Pedro Garza Garcra,"0577","003",,GAS.3590@GMAIL.COM,WWW.TIMESCARD/PROCOMSA,Fijo,25.67454009,-100.40469999,2010-07
"7564163",PAPELERIA Y REGALOS,,"465311",Comercio al por menor de artRculos de papelersa,0 a 5 personas,CALLE,ROQUE GONZALEZ GARZA,CALLE,GENERAL NLVARO OBREGON,CALLE,ANTONIO DIAZ SOTO,CALLE,GENERAL DLVARO OBREGON,"144",,,,,,COLONIA,REVOLUCION,,,,"66219","19",NUEVO LEON,"019",San Pedro Garza GarcOa,"0001",San Pedro Garza GarcOa,"0327","014",,,,Fijo,25.68159788,-100.41083175,2019-11
"7563999",PAPELERIA Y REGALITOS,,"465311",Comercio al por menor de artRculos de papelersa,0 a 5 personas,CALLE,COBRE,CALLE,GRAFITO,CALLE,AZUFRE,CALLE,ZINC,"402",,,,"0",,COLONIA,SAN PEDRO 400,,,,"66210","19",NUEVO LEON,"019",San Pedro Garza Garcra,"0001",San Pedro Garza Garcra,"0011","001",,,,Fijo,25.68474712,-100.41319634,2019-11
"7564042",PAPELERIA Y MERCERIA ROUS,,"465311",Comercio al por menor de artLculos de papelersa,0 a 5 personas,CALLE,COBRE,CALLE,PLOMO,CALLE,COBALTO,CALLE,ZINC,"222",,,,"0",,COLONIA,SAN PEDRO 400,,,,"66210","19",NUEVO LEON,"019",San Pedro Garza Garcra,"0001",San Pedro Garza Garcra,"0011","014","8110335799",,,Fijo,25.68257049,-100.41317129,2019-11
"6228523",PINTURAS OSEL SA DE CV,PINTURAS OSEL SA DE CV,"467113",Comercio al por menor de pintura,0 a 5 personas,BOULEVARD,DIAZ ORDAZ,BOULEVARD,MARIA CANTU TREVIeO,AVENIDA,CORREGIDORA,CALLE,LUCIO BLANCO,"335",,,,,,COLONIA,LA LEONA,,,,"66230","19",NUEVO LE,"019",San Pedro Garza Garcra,"0001",San Pedro Garza Garcra,"0577","003",,,WWW.PINTURASOSEL.COM,Fijo,25.67447,-100.40428,2010-07
"8688884",REGALOS Y NOVEDADES EAG,,"465912",Comercio al por menor de regalos,0 a 5 personas,AVENIDA,GENERAL EMILIANO ZAPATA,ANDADOR,ANACLETO GUERRERO,CALLE,NICEFORO ZAMBRANO,CALLE,RAMIRO TAMEZ,"101",B,,,,,COLONIA,VISTA MONTAZA,,,,"66216","19",NUEVO LENN,"019",San Pedro Garza GarcAa,"0001",San Pedro Garza GarcAa,"0327","046",,,,Fijo,25.68224257,-100.4068803,2019-11
"8688820",REFACCIONARIA FUEL INJECTION,,"468211","Comercio al por menor de partes y refacciones nuevas para automlviles, camionetas y camiones",0 a 5 personas,AVENIDA,MANUEL J. CLOUTHIER,CALLE,ANTONIO I. VILLARREAL,CALLE,RICARDO FLORES MAGON,CALLE,ANTONIO DLAZ SOTO,"235",,,,,,COLONIA,REVOLUCION,,,,"66219","19",NUEVO LEON,"019",San Pedro Garza Garc,"0001",San Pedro Garza Garc,"0327","032","8117380324",,,Fijo,25.67925573,-100.40848452,2019-11
"8688826",PAPELERIA Y REGALOS WOOLIS,,"465311",Comercio al por menor de artaculos de papelersa,0 a 5 personas,CALLE,COBALTO,CALLE,POTASIO,CALLE,SODIO,CALLE,PLOMO,,SN,,,,,CIUDAD,SAN PEDRO 400,,,,"66210","19",NUEVO LEON,"019",San Pedro Garza Garcra,"0001",San Pedro Garza Garcra,"0011","022",,,,Fijo,25.68249582,-100.41222957,2019-11
"8688885",PAPELERIA Y REGALOS SIN NOMBRE,,"465311","Comercio al por menor de artRculos de papeler,a",0 a 5 personas,CALLE,AZUFRE,CALLE,POTASIO,CALLE,PLATINO,CALLE,BORO,,SN,,,,,COLONIA,SAN PEDRO 400,,,,"66210","19",NUEVO LEON,"019",San Pedro Garza Garcra,"0001",San Pedro Garza Garcra,"0011","035",,,,Fijo,25.68471598,-100.41119621,2019-11
"3017898",SIX TORO,,"461212",Comercio al por menor de cerveza,0 a 5 personas,CALLE,ORO,AVENIDA,LAS TORRES,CALLE,MANGANESO,CALLE,FIERRO,,SN,,,,,COLONIA,UNIDAD HABITACIONAL SAN PEDRO,,,,"66210","19",NUEVO LEAN,"019",San Pedro Garza GarcSa,"0001",San Pedro Garza GarcSa,"0026","042","8120108036",,,Fijo,25.68007031,-100.4170044,2010-07
"9238259",SIX SAN PETER,CONTROLADORA DE NEGOCIOS COMERCIALES SA DE CV,"461212",Comercio al por menor de cerveza,0 a 5 personas,CALLE,Fierro,CALLE,Cristal,CALLE,Marga,CALLE,Cromo,"516",,,,"0",,COLONIA,FOMERREY 22,,,,"66210","19",NUEVO LE N,"019",San Pedro Garza Garcra,"0001",San Pedro Garza Garcra,"0312","007",,,,Fijo,25.6868357,-100.41655821,2020-04
"3019347",PAPELERIA Y ABARROTES EL ANGEL,,"461110","Comercio al por menor en tiendas de abarrotes, ultramarinos y miscelsneas",0 a 5 personas,CALLE,FRANCISCO I. MADERO,CALLE,LANDON,CALLE,FELIX I.,CALLE,JUAN SARABIA,"804",,,,,,COLONIA,VILLAS DEL OBISPO,,,,"66210","19",NUEVO LEEN,"019",San Pedro Garza Garcra,"0001",San Pedro Garza Garcra,"0331","035","8183157803",,,Fijo,25.67983732,-100.39961918,2010-07
"6228420",SIX CROMOS,CONTROLADORA DE NEGOCIOS COMERCIALES SA DE CV,"461212",Comercio al por menor de cerveza,0 a 5 personas,CALLE,CROMO,CALLE,PLOMO,CALLE,COBALTO,CALLE,FIERRO,"211",,,,,,COLONIA,SAN PEDRO 400,,,,"66231","19",NUEVO LEON,"019",San Pedro Garza Garcra,"0001",San Pedro Garza Garcra,"0026","029",,SAUL.RODRIGUEZ@HEINECKEN.COM,WWW.HEINEKEN.COM,Fijo,25.68288413,-100.41746257,2010-07
"3019355",SUPER CARNES RIVERA,,"462112",Comercio al por menor en minisupers,6 a 10 personas,CALLE,EULALIO GUZMAN,CALLE,LANDON,CALLE,FELIX I.,CALLE,MANUEL GONZMLEZ,"815",,,,,,COLONIA,EL OBISPO,,,,"66210","19",NUEVO LEON,"019",San Pedro Garza Garcra,"0001",San Pedro Garza Garcra,"0331","041","8183155527",CARNESRIVERA@HOTMAIL.COM,,Fijo,25.6779716,-100.39970651,2010-07
"7563992",PAPELERIA SIN NOMBRE,,"465311",Comercio al por menor de artOculos de papelersa,0 a 5 personas,CALLE,COBRE,CALLE,AZUFRE,CALLE,TUNGSTENO,CALLE,ANTIMONIO,"531",,,,"0",,COLONIA,SAN PEDRO 400,,,,"66210","19",NUEVO LEON,"019",San Pedro Garza Garcra,"0001",San Pedro Garza Garcra,"0011","008",,,,Fijo,25.68671681,-100.41313942,2019-11
